{
  "type": "FeatureCollection",
  "features": [
    {
      "type": "Feature",
      "geometry": { "type": "Point", "coordinates": [-0.06083, 51.41756] },
      "properties": { "id": 1, "name": "Penge West", "line": "Overground" },
      "id": 1
    },
    {
      "type": "Feature",
      "geometry": { "type": "Point", "coordinates": [0.096762, 51.563878] },
      "properties": { "id": 2, "name": "Seven Kings", "line": "ElizabethLine" },
      "id": 2
    },
    {
      "type": "Feature",
      "geometry": { "type": "Point", "coordinates": [0.026347, 51.509853] },
      "properties": { "id": 3, "name": "Custom House", "line": "DLR" },
      "id": 3
    },
    {
      "type": "Feature",
      "geometry": { "type": "Point", "coordinates": [0.026347, 51.509853] },
      "properties": {
        "id": 3,
        "name": "Custom House",
        "line": "ElizabethLine"
      },
      "id": 3
    },
    {
      "type": "Feature",
      "geometry": { "type": "Point", "coordinates": [-0.346444, 51.542302] },
      "properties": { "id": 4, "name": "Greenford", "line": "Central" },
      "id": 4
    },
    {
      "type": "Feature",
      "geometry": { "type": "Point", "coordinates": [-0.452439, 51.471219] },
      "properties": {
        "id": 5,
        "name": "Heathrow Terminals 2 & 3",
        "line": "ElizabethLine"
      },
      "id": 5
    },
    {
      "type": "Feature",
      "geometry": { "type": "Point", "coordinates": [-0.452439, 51.471219] },
      "properties": {
        "id": 5,
        "name": "Heathrow Terminals 2 & 3",
        "line": "Piccadilly"
      },
      "id": 5
    },
    {
      "type": "Feature",
      "geometry": { "type": "Point", "coordinates": [0.045423, 51.576302] },
      "properties": { "id": 6, "name": "Redbridge", "line": "Central" },
      "id": 6
    },
    {
      "type": "Feature",
      "geometry": { "type": "Point", "coordinates": [0.055312, 51.641513] },
      "properties": { "id": 7, "name": "Loughton", "line": "Central" },
      "id": 7
    },
    {
      "type": "Feature",
      "geometry": { "type": "Point", "coordinates": [-0.863293, 51.475532] },
      "properties": { "id": 8, "name": "Twyford", "line": "ElizabethLine" },
      "id": 8
    },
    {
      "type": "Feature",
      "geometry": { "type": "Point", "coordinates": [-0.014453, 51.49582] },
      "properties": { "id": 9, "name": "Crossharbour", "line": "DLR" },
      "id": 9
    },
    {
      "type": "Feature",
      "geometry": { "type": "Point", "coordinates": [-0.174172, 51.534565] },
      "properties": { "id": 10, "name": "St John's Wood", "line": "Jubilee" },
      "id": 10
    },
    {
      "type": "Feature",
      "geometry": { "type": "Point", "coordinates": [-0.040413, 51.475127] },
      "properties": {
        "id": 11,
        "name": "New Cross Gate",
        "line": "Overground"
      },
      "id": 11
    },
    {
      "type": "Feature",
      "geometry": { "type": "Point", "coordinates": [-0.10579, 51.532499] },
      "properties": { "id": 12, "name": "Angel", "line": "Northern" },
      "id": 12
    },
    {
      "type": "Feature",
      "geometry": { "type": "Point", "coordinates": [-0.366922, 51.471083] },
      "properties": {
        "id": 13,
        "name": "Hounslow Central",
        "line": "Piccadilly"
      },
      "id": 13
    },
    {
      "type": "Feature",
      "geometry": { "type": "Point", "coordinates": [-0.09814, 51.57719] },
      "properties": {
        "id": 14,
        "name": "Harringay Green Lanes",
        "line": "Overground"
      },
      "id": 14
    },
    {
      "type": "Feature",
      "geometry": { "type": "Point", "coordinates": [-0.017577, 51.522629] },
      "properties": { "id": 15, "name": "Devons Road", "line": "DLR" },
      "id": 15
    },
    {
      "type": "Feature",
      "geometry": { "type": "Point", "coordinates": [-0.011662, 51.52477] },
      "properties": { "id": 16, "name": "Bromley-by-Bow", "line": "District" },
      "id": 16
    },
    {
      "type": "Feature",
      "geometry": { "type": "Point", "coordinates": [-0.011662, 51.52477] },
      "properties": {
        "id": 16,
        "name": "Bromley-by-Bow",
        "line": "HammersmithAndCity"
      },
      "id": 16
    },
    {
      "type": "Feature",
      "geometry": { "type": "Point", "coordinates": [0.009897, 51.633085] },
      "properties": { "id": 17, "name": "Chingford", "line": "Overground" },
      "id": 17
    },
    {
      "type": "Feature",
      "geometry": { "type": "Point", "coordinates": [-0.105092, 51.503843] },
      "properties": { "id": 18, "name": "Southwark", "line": "Jubilee" },
      "id": 18
    },
    {
      "type": "Feature",
      "geometry": { "type": "Point", "coordinates": [-0.040996, 51.586951] },
      "properties": {
        "id": 19,
        "name": "Blackhorse Road",
        "line": "Overground"
      },
      "id": 19
    },
    {
      "type": "Feature",
      "geometry": { "type": "Point", "coordinates": [-0.040996, 51.586951] },
      "properties": { "id": 19, "name": "Blackhorse Road", "line": "Victoria" },
      "id": 19
    },
    {
      "type": "Feature",
      "geometry": { "type": "Point", "coordinates": [-0.010859, 51.481694] },
      "properties": { "id": 20, "name": "Cutty Sark", "line": "DLR" },
      "id": 20
    },
    {
      "type": "Feature",
      "geometry": { "type": "Point", "coordinates": [-0.285252, 51.47703] },
      "properties": { "id": 21, "name": "Kew Gardens", "line": "District" },
      "id": 21
    },
    {
      "type": "Feature",
      "geometry": { "type": "Point", "coordinates": [-0.285252, 51.47703] },
      "properties": { "id": 21, "name": "Kew Gardens", "line": "Overground" },
      "id": 21
    },
    {
      "type": "Feature",
      "geometry": { "type": "Point", "coordinates": [-0.124219, 51.607091] },
      "properties": { "id": 22, "name": "Bounds Green", "line": "Piccadilly" },
      "id": 22
    },
    {
      "type": "Feature",
      "geometry": { "type": "Point", "coordinates": [-0.437886, 51.569529] },
      "properties": { "id": 23, "name": "West Ruislip", "line": "Central" },
      "id": 23
    },
    {
      "type": "Feature",
      "geometry": { "type": "Point", "coordinates": [-0.18282, 51.47495] },
      "properties": {
        "id": 24,
        "name": "Imperial Wharf",
        "line": "Overground"
      },
      "id": 24
    },
    {
      "type": "Feature",
      "geometry": { "type": "Point", "coordinates": [-0.143956, 51.52372] },
      "properties": {
        "id": 25,
        "name": "Great Portland Street",
        "line": "Circle"
      },
      "id": 25
    },
    {
      "type": "Feature",
      "geometry": { "type": "Point", "coordinates": [-0.143956, 51.52372] },
      "properties": {
        "id": 25,
        "name": "Great Portland Street",
        "line": "HammersmithAndCity"
      },
      "id": 25
    },
    {
      "type": "Feature",
      "geometry": { "type": "Point", "coordinates": [-0.143956, 51.52372] },
      "properties": {
        "id": 25,
        "name": "Great Portland Street",
        "line": "Metropolitan"
      },
      "id": 25
    },
    {
      "type": "Feature",
      "geometry": { "type": "Point", "coordinates": [-0.0006, 51.5379] },
      "properties": {
        "id": 26,
        "name": "Stratford High Street",
        "line": "DLR"
      },
      "id": 26
    },
    {
      "type": "Feature",
      "geometry": { "type": "Point", "coordinates": [-0.352212, 51.564678] },
      "properties": { "id": 27, "name": "South Harrow", "line": "Piccadilly" },
      "id": 27
    },
    {
      "type": "Feature",
      "geometry": { "type": "Point", "coordinates": [-0.15077, 51.55534] },
      "properties": { "id": 28, "name": "Gospel Oak", "line": "Overground" },
      "id": 28
    },
    {
      "type": "Feature",
      "geometry": { "type": "Point", "coordinates": [-0.10258, 51.37843] },
      "properties": { "id": 29, "name": "West Croydon", "line": "Overground" },
      "id": 29
    },
    {
      "type": "Feature",
      "geometry": { "type": "Point", "coordinates": [-0.072287, 51.515233] },
      "properties": { "id": 30, "name": "Aldgate East", "line": "District" },
      "id": 30
    },
    {
      "type": "Feature",
      "geometry": { "type": "Point", "coordinates": [-0.072287, 51.515233] },
      "properties": {
        "id": 30,
        "name": "Aldgate East",
        "line": "HammersmithAndCity"
      },
      "id": 30
    },
    {
      "type": "Feature",
      "geometry": { "type": "Point", "coordinates": [-0.398659, 51.556517] },
      "properties": { "id": 31, "name": "South Ruislip", "line": "Central" },
      "id": 31
    },
    {
      "type": "Feature",
      "geometry": { "type": "Point", "coordinates": [-0.317691, 51.5783] },
      "properties": {
        "id": 32,
        "name": "Northwick Park",
        "line": "Metropolitan"
      },
      "id": 32
    },
    {
      "type": "Feature",
      "geometry": { "type": "Point", "coordinates": [-0.18314, 51.55027] },
      "properties": {
        "id": 33,
        "name": "Finchley Road & Frognal",
        "line": "Overground"
      },
      "id": 33
    },
    {
      "type": "Feature",
      "geometry": { "type": "Point", "coordinates": [-0.296516, 51.552143] },
      "properties": { "id": 34, "name": "Wembley Central", "line": "Bakerloo" },
      "id": 34
    },
    {
      "type": "Feature",
      "geometry": { "type": "Point", "coordinates": [-0.296516, 51.552143] },
      "properties": {
        "id": 34,
        "name": "Wembley Central",
        "line": "Overground"
      },
      "id": 34
    },
    {
      "type": "Feature",
      "geometry": { "type": "Point", "coordinates": [-0.0726, 51.41811] },
      "properties": {
        "id": 35,
        "name": "Crystal Palace",
        "line": "Overground"
      },
      "id": 35
    },
    {
      "type": "Feature",
      "geometry": { "type": "Point", "coordinates": [0.090337, 51.575572] },
      "properties": { "id": 36, "name": "Newbury Park", "line": "Central" },
      "id": 36
    },
    {
      "type": "Feature",
      "geometry": { "type": "Point", "coordinates": [-0.086469, 51.51074] },
      "properties": { "id": 37, "name": "Monument", "line": "Circle" },
      "id": 37
    },
    {
      "type": "Feature",
      "geometry": { "type": "Point", "coordinates": [-0.086469, 51.51074] },
      "properties": { "id": 37, "name": "Monument", "line": "District" },
      "id": 37
    },
    {
      "type": "Feature",
      "geometry": { "type": "Point", "coordinates": [-0.08755, 51.525601] },
      "properties": { "id": 38, "name": "Old Street", "line": "Northern" },
      "id": 38
    },
    {
      "type": "Feature",
      "geometry": { "type": "Point", "coordinates": [-0.070914, 51.605035] },
      "properties": {
        "id": 39,
        "name": "White Hart Lane",
        "line": "Overground"
      },
      "id": 39
    },
    {
      "type": "Feature",
      "geometry": { "type": "Point", "coordinates": [-0.442027, 51.561985] },
      "properties": { "id": 40, "name": "Ickenham", "line": "Metropolitan" },
      "id": 40
    },
    {
      "type": "Feature",
      "geometry": { "type": "Point", "coordinates": [-0.442027, 51.561985] },
      "properties": { "id": 40, "name": "Ickenham", "line": "Piccadilly" },
      "id": 40
    },
    {
      "type": "Feature",
      "geometry": { "type": "Point", "coordinates": [-0.017929, 51.507742] },
      "properties": { "id": 41, "name": "Poplar", "line": "DLR" },
      "id": 41
    },
    {
      "type": "Feature",
      "geometry": { "type": "Point", "coordinates": [-0.07569, 51.54815] },
      "properties": {
        "id": 42,
        "name": "Dalston Kingsland",
        "line": "Overground"
      },
      "id": 42
    },
    {
      "type": "Feature",
      "geometry": { "type": "Point", "coordinates": [-0.12431, 51.522913] },
      "properties": {
        "id": 43,
        "name": "Russell Square",
        "line": "Piccadilly"
      },
      "id": 43
    },
    {
      "type": "Feature",
      "geometry": { "type": "Point", "coordinates": [-0.210383, 51.497809] },
      "properties": {
        "id": 44,
        "name": "Kensington (Olympia)",
        "line": "District"
      },
      "id": 44
    },
    {
      "type": "Feature",
      "geometry": { "type": "Point", "coordinates": [-0.210383, 51.497809] },
      "properties": {
        "id": 44,
        "name": "Kensington (Olympia)",
        "line": "Overground"
      },
      "id": 44
    },
    {
      "type": "Feature",
      "geometry": { "type": "Point", "coordinates": [-0.120009, 51.517439] },
      "properties": { "id": 45, "name": "Holborn", "line": "Central" },
      "id": 45
    },
    {
      "type": "Feature",
      "geometry": { "type": "Point", "coordinates": [-0.120009, 51.517439] },
      "properties": { "id": 45, "name": "Holborn", "line": "Piccadilly" },
      "id": 45
    },
    {
      "type": "Feature",
      "geometry": { "type": "Point", "coordinates": [-0.206382, 51.421384] },
      "properties": { "id": 46, "name": "Wimbledon", "line": "District" },
      "id": 46
    },
    {
      "type": "Feature",
      "geometry": { "type": "Point", "coordinates": [-0.409299, 51.600495] },
      "properties": {
        "id": 47,
        "name": "Northwood Hills",
        "line": "Metropolitan"
      },
      "id": 47
    },
    {
      "type": "Feature",
      "geometry": { "type": "Point", "coordinates": [-0.175429, 51.511822] },
      "properties": { "id": 48, "name": "Lancaster Gate", "line": "Central" },
      "id": 48
    },
    {
      "type": "Feature",
      "geometry": { "type": "Point", "coordinates": [-0.057279, 51.531971] },
      "properties": {
        "id": 49,
        "name": "Cambridge Heath",
        "line": "Overground"
      },
      "id": 49
    },
    {
      "type": "Feature",
      "geometry": { "type": "Point", "coordinates": [-0.06588, 51.41215] },
      "properties": { "id": 50, "name": "Anerley", "line": "Overground" },
      "id": 50
    },
    {
      "type": "Feature",
      "geometry": { "type": "Point", "coordinates": [-0.21013, 51.5407] },
      "properties": {
        "id": 51,
        "name": "Brondesbury Park",
        "line": "Overground"
      },
      "id": 51
    },
    {
      "type": "Feature",
      "geometry": { "type": "Point", "coordinates": [-0.188469, 51.609486] },
      "properties": { "id": 52, "name": "West Finchley", "line": "Northern" },
      "id": 52
    },
    {
      "type": "Feature",
      "geometry": { "type": "Point", "coordinates": [-0.014, 51.515] },
      "properties": { "id": 53, "name": "Langdon Park", "line": "DLR" },
      "id": 53
    },
    {
      "type": "Feature",
      "geometry": { "type": "Point", "coordinates": [-0.301754, 51.46316] },
      "properties": { "id": 54, "name": "Richmond", "line": "District" },
      "id": 54
    },
    {
      "type": "Feature",
      "geometry": { "type": "Point", "coordinates": [-0.301754, 51.46316] },
      "properties": { "id": 54, "name": "Richmond", "line": "Overground" },
      "id": 54
    },
    {
      "type": "Feature",
      "geometry": { "type": "Point", "coordinates": [-0.19223, 51.53728] },
      "properties": {
        "id": 55,
        "name": "Kilburn High Road",
        "line": "Overground"
      },
      "id": 55
    },
    {
      "type": "Feature",
      "geometry": { "type": "Point", "coordinates": [-0.124818, 51.501085] },
      "properties": { "id": 56, "name": "Westminster", "line": "Circle" },
      "id": 56
    },
    {
      "type": "Feature",
      "geometry": { "type": "Point", "coordinates": [-0.124818, 51.501085] },
      "properties": { "id": 56, "name": "Westminster", "line": "District" },
      "id": 56
    },
    {
      "type": "Feature",
      "geometry": { "type": "Point", "coordinates": [-0.124818, 51.501085] },
      "properties": { "id": 56, "name": "Westminster", "line": "Jubilee" },
      "id": 56
    },
    {
      "type": "Feature",
      "geometry": { "type": "Point", "coordinates": [-0.022359, 51.474179] },
      "properties": { "id": 57, "name": "Deptford Bridge", "line": "DLR" },
      "id": 57
    },
    {
      "type": "Feature",
      "geometry": { "type": "Point", "coordinates": [-0.088921, 51.51332] },
      "properties": { "id": 58, "name": "Bank", "line": "Central" },
      "id": 58
    },
    {
      "type": "Feature",
      "geometry": { "type": "Point", "coordinates": [-0.088921, 51.51332] },
      "properties": { "id": 58, "name": "Bank", "line": "DLR" },
      "id": 58
    },
    {
      "type": "Feature",
      "geometry": { "type": "Point", "coordinates": [-0.088921, 51.51332] },
      "properties": { "id": 58, "name": "Bank", "line": "Northern" },
      "id": 58
    },
    {
      "type": "Feature",
      "geometry": { "type": "Point", "coordinates": [-0.088921, 51.51332] },
      "properties": { "id": 58, "name": "Bank", "line": "WaterlooAndCity" },
      "id": 58
    },
    {
      "type": "Feature",
      "geometry": { "type": "Point", "coordinates": [-0.276031, 51.543762] },
      "properties": {
        "id": 59,
        "name": "Stonebridge Park",
        "line": "Bakerloo"
      },
      "id": 59
    },
    {
      "type": "Feature",
      "geometry": { "type": "Point", "coordinates": [-0.276031, 51.543762] },
      "properties": {
        "id": 59,
        "name": "Stonebridge Park",
        "line": "Overground"
      },
      "id": 59
    },
    {
      "type": "Feature",
      "geometry": { "type": "Point", "coordinates": [-0.218701, 51.504748] },
      "properties": { "id": 60, "name": "Shepherd's Bush", "line": "Central" },
      "id": 60
    },
    {
      "type": "Feature",
      "geometry": { "type": "Point", "coordinates": [-0.206538, 51.444931] },
      "properties": { "id": 61, "name": "Southfields", "line": "District" },
      "id": 61
    },
    {
      "type": "Feature",
      "geometry": { "type": "Point", "coordinates": [0.005815, 51.54608] },
      "properties": { "id": 62, "name": "Maryland", "line": "ElizabethLine" },
      "id": 62
    },
    {
      "type": "Feature",
      "geometry": { "type": "Point", "coordinates": [0.090929, 51.595681] },
      "properties": { "id": 63, "name": "Fairlop", "line": "Central" },
      "id": 63
    },
    {
      "type": "Feature",
      "geometry": { "type": "Point", "coordinates": [0.06399, 51.508405] },
      "properties": { "id": 64, "name": "Cyprus", "line": "DLR" },
      "id": 64
    },
    {
      "type": "Feature",
      "geometry": { "type": "Point", "coordinates": [0.046217, 51.508196] },
      "properties": { "id": 65, "name": "Royal Albert", "line": "DLR" },
      "id": 65
    },
    {
      "type": "Feature",
      "geometry": { "type": "Point", "coordinates": [-0.2008, 51.475252] },
      "properties": { "id": 66, "name": "Parsons Green", "line": "District" },
      "id": 66
    },
    {
      "type": "Feature",
      "geometry": { "type": "Point", "coordinates": [-0.217654, 51.505283] },
      "properties": {
        "id": 67,
        "name": "Shepherd's Bush",
        "line": "Overground"
      },
      "id": 67
    },
    {
      "type": "Feature",
      "geometry": { "type": "Point", "coordinates": [0.066449, 51.576552] },
      "properties": { "id": 68, "name": "Gants Hill", "line": "Central" },
      "id": 68
    },
    {
      "type": "Feature",
      "geometry": { "type": "Point", "coordinates": [-0.446059, 51.458553] },
      "properties": {
        "id": 69,
        "name": "Heathrow Terminal 4",
        "line": "ElizabethLine"
      },
      "id": 69
    },
    {
      "type": "Feature",
      "geometry": { "type": "Point", "coordinates": [-0.446059, 51.458553] },
      "properties": {
        "id": 69,
        "name": "Heathrow Terminal 4",
        "line": "Piccadilly"
      },
      "id": 69
    },
    {
      "type": "Feature",
      "geometry": { "type": "Point", "coordinates": [-0.1657, 51.55522] },
      "properties": {
        "id": 70,
        "name": "Hampstead Heath",
        "line": "Overground"
      },
      "id": 70
    },
    {
      "type": "Feature",
      "geometry": { "type": "Point", "coordinates": [-0.308589, 51.570172] },
      "properties": { "id": 71, "name": "South Kenton", "line": "Bakerloo" },
      "id": 71
    },
    {
      "type": "Feature",
      "geometry": { "type": "Point", "coordinates": [-0.308589, 51.570172] },
      "properties": { "id": 71, "name": "South Kenton", "line": "Overground" },
      "id": 71
    },
    {
      "type": "Feature",
      "geometry": { "type": "Point", "coordinates": [-0.105762, 51.558499] },
      "properties": { "id": 72, "name": "Arsenal", "line": "Piccadilly" },
      "id": 72
    },
    {
      "type": "Feature",
      "geometry": { "type": "Point", "coordinates": [-0.13252, 51.46548] },
      "properties": {
        "id": 73,
        "name": "Clapham High Street",
        "line": "Overground"
      },
      "id": 73
    },
    {
      "type": "Feature",
      "geometry": { "type": "Point", "coordinates": [-0.36846, 51.54815] },
      "properties": { "id": 74, "name": "Northolt", "line": "Central" },
      "id": 74
    },
    {
      "type": "Feature",
      "geometry": { "type": "Point", "coordinates": [-0.020385, 51.507171] },
      "properties": { "id": 75, "name": "West India Quay", "line": "DLR" },
      "id": 75
    },
    {
      "type": "Feature",
      "geometry": { "type": "Point", "coordinates": [0.02149, 51.580827] },
      "properties": { "id": 76, "name": "Snaresbrook", "line": "Central" },
      "id": 76
    },
    {
      "type": "Feature",
      "geometry": { "type": "Point", "coordinates": [0.128958, 51.568037] },
      "properties": {
        "id": 77,
        "name": "Chadwell Heath",
        "line": "ElizabethLine"
      },
      "id": 77
    },
    {
      "type": "Feature",
      "geometry": { "type": "Point", "coordinates": [-0.59151, 51.511879] },
      "properties": { "id": 78, "name": "Slough", "line": "ElizabethLine" },
      "id": 78
    },
    {
      "type": "Feature",
      "geometry": { "type": "Point", "coordinates": [-0.07513, 51.54612] },
      "properties": {
        "id": 79,
        "name": "Dalston Junction",
        "line": "Overground"
      },
      "id": 79
    },
    {
      "type": "Feature",
      "geometry": { "type": "Point", "coordinates": [-0.170135, 51.520184] },
      "properties": { "id": 80, "name": "Edgware Road", "line": "Bakerloo" },
      "id": 80
    },
    {
      "type": "Feature",
      "geometry": { "type": "Point", "coordinates": [-0.138843, 51.534207] },
      "properties": {
        "id": 81,
        "name": "Mornington Crescent",
        "line": "Northern"
      },
      "id": 81
    },
    {
      "type": "Feature",
      "geometry": { "type": "Point", "coordinates": [-0.432667, 51.629731] },
      "properties": { "id": 82, "name": "Moor Park", "line": "Metropolitan" },
      "id": 82
    },
    {
      "type": "Feature",
      "geometry": { "type": "Point", "coordinates": [-0.611219, 51.70503] },
      "properties": { "id": 83, "name": "Chesham", "line": "Metropolitan" },
      "id": 83
    },
    {
      "type": "Feature",
      "geometry": { "type": "Point", "coordinates": [-0.208977, 51.467902] },
      "properties": { "id": 84, "name": "Putney Bridge", "line": "District" },
      "id": 84
    },
    {
      "type": "Feature",
      "geometry": { "type": "Point", "coordinates": [-0.03242, 51.47635] },
      "properties": { "id": 85, "name": "New Cross", "line": "Overground" },
      "id": 85
    },
    {
      "type": "Feature",
      "geometry": { "type": "Point", "coordinates": [-0.11176, 51.499058] },
      "properties": { "id": 86, "name": "Lambeth North", "line": "Bakerloo" },
      "id": 86
    },
    {
      "type": "Feature",
      "geometry": { "type": "Point", "coordinates": [-0.146863, 51.523506] },
      "properties": { "id": 87, "name": "Regent's Park", "line": "Bakerloo" },
      "id": 87
    },
    {
      "type": "Feature",
      "geometry": { "type": "Point", "coordinates": [-0.362224, 51.584792] },
      "properties": {
        "id": 88,
        "name": "North Harrow",
        "line": "Metropolitan"
      },
      "id": 88
    },
    {
      "type": "Feature",
      "geometry": { "type": "Point", "coordinates": [-0.056904, 51.511229] },
      "properties": { "id": 89, "name": "Shadwell", "line": "Overground" },
      "id": 89
    },
    {
      "type": "Feature",
      "geometry": { "type": "Point", "coordinates": [-0.275019, 51.613545] },
      "properties": { "id": 90, "name": "Edgware", "line": "Northern" },
      "id": 90
    },
    {
      "type": "Feature",
      "geometry": { "type": "Point", "coordinates": [-0.199635, 51.434558] },
      "properties": { "id": 91, "name": "Wimbledon Park", "line": "District" },
      "id": 91
    },
    {
      "type": "Feature",
      "geometry": { "type": "Point", "coordinates": [-0.209894, 51.608259] },
      "properties": { "id": 92, "name": "Mill Hill East", "line": "Northern" },
      "id": 92
    },
    {
      "type": "Feature",
      "geometry": { "type": "Point", "coordinates": [0.19918, 51.549801] },
      "properties": { "id": 93, "name": "Elm Park", "line": "District" },
      "id": 93
    },
    {
      "type": "Feature",
      "geometry": { "type": "Point", "coordinates": [-0.145758, 51.577658] },
      "properties": { "id": 94, "name": "Highgate", "line": "Northern" },
      "id": 94
    },
    {
      "type": "Feature",
      "geometry": { "type": "Point", "coordinates": [-0.226496, 51.583294] },
      "properties": { "id": 95, "name": "Hendon Central", "line": "Northern" },
      "id": 95
    },
    {
      "type": "Feature",
      "geometry": { "type": "Point", "coordinates": [-0.194401, 51.480743] },
      "properties": { "id": 96, "name": "Fulham Broadway", "line": "District" },
      "id": 96
    },
    {
      "type": "Feature",
      "geometry": { "type": "Point", "coordinates": [-0.076354, 51.510066] },
      "properties": { "id": 98, "name": "Tower Hill", "line": "Circle" },
      "id": 98
    },
    {
      "type": "Feature",
      "geometry": { "type": "Point", "coordinates": [-0.076354, 51.510066] },
      "properties": { "id": 98, "name": "Tower Hill", "line": "District" },
      "id": 98
    },
    {
      "type": "Feature",
      "geometry": { "type": "Point", "coordinates": [-0.441711, 51.647046] },
      "properties": { "id": 99, "name": "Croxley", "line": "Metropolitan" },
      "id": 99
    },
    {
      "type": "Feature",
      "geometry": { "type": "Point", "coordinates": [-0.472234, 51.510053] },
      "properties": {
        "id": 100,
        "name": "West Drayton",
        "line": "ElizabethLine"
      },
      "id": 100
    },
    {
      "type": "Feature",
      "geometry": { "type": "Point", "coordinates": [-0.38475, 51.64558] },
      "properties": { "id": 101, "name": "Bushey", "line": "Overground" },
      "id": 101
    },
    {
      "type": "Feature",
      "geometry": { "type": "Point", "coordinates": [-0.23585, 51.494124] },
      "properties": {
        "id": 102,
        "name": "Ravenscourt Park",
        "line": "District"
      },
      "id": 102
    },
    {
      "type": "Feature",
      "geometry": { "type": "Point", "coordinates": [-0.336216, 51.556996] },
      "properties": { "id": 103, "name": "Sudbury Hill", "line": "Piccadilly" },
      "id": 103
    },
    {
      "type": "Feature",
      "geometry": { "type": "Point", "coordinates": [-0.127758, 51.63232] },
      "properties": { "id": 104, "name": "Southgate", "line": "Piccadilly" },
      "id": 104
    },
    {
      "type": "Feature",
      "geometry": { "type": "Point", "coordinates": [-0.226748, 51.501952] },
      "properties": { "id": 105, "name": "Goldhawk Road", "line": "Circle" },
      "id": 105
    },
    {
      "type": "Feature",
      "geometry": { "type": "Point", "coordinates": [-0.226748, 51.501952] },
      "properties": {
        "id": 105,
        "name": "Goldhawk Road",
        "line": "HammersmithAndCity"
      },
      "id": 105
    },
    {
      "type": "Feature",
      "geometry": { "type": "Point", "coordinates": [-0.088339, 51.518464] },
      "properties": { "id": 106, "name": "Moorgate", "line": "Circle" },
      "id": 106
    },
    {
      "type": "Feature",
      "geometry": { "type": "Point", "coordinates": [-0.088339, 51.518464] },
      "properties": {
        "id": 106,
        "name": "Moorgate",
        "line": "HammersmithAndCity"
      },
      "id": 106
    },
    {
      "type": "Feature",
      "geometry": { "type": "Point", "coordinates": [-0.088339, 51.518464] },
      "properties": { "id": 106, "name": "Moorgate", "line": "Metropolitan" },
      "id": 106
    },
    {
      "type": "Feature",
      "geometry": { "type": "Point", "coordinates": [-0.088339, 51.518464] },
      "properties": { "id": 106, "name": "Moorgate", "line": "Northern" },
      "id": 106
    },
    {
      "type": "Feature",
      "geometry": { "type": "Point", "coordinates": [-0.090395, 51.511049] },
      "properties": { "id": 107, "name": "Cannon Street", "line": "Circle" },
      "id": 107
    },
    {
      "type": "Feature",
      "geometry": { "type": "Point", "coordinates": [-0.090395, 51.511049] },
      "properties": { "id": 107, "name": "Cannon Street", "line": "District" },
      "id": 107
    },
    {
      "type": "Feature",
      "geometry": { "type": "Point", "coordinates": [-0.337016, 51.579329] },
      "properties": {
        "id": 108,
        "name": "Harrow-on-the-Hill",
        "line": "Metropolitan"
      },
      "id": 108
    },
    {
      "type": "Feature",
      "geometry": { "type": "Point", "coordinates": [-0.39171, 51.65266] },
      "properties": {
        "id": 109,
        "name": "Watford High Street",
        "line": "Overground"
      },
      "id": 109
    },
    {
      "type": "Feature",
      "geometry": { "type": "Point", "coordinates": [-0.069867, 51.593957] },
      "properties": { "id": 110, "name": "Bruce Grove", "line": "Overground" },
      "id": 110
    },
    {
      "type": "Feature",
      "geometry": { "type": "Point", "coordinates": [-0.48781, 51.47237] },
      "properties": {
        "id": 111,
        "name": "Heathrow Terminal 5",
        "line": "ElizabethLine"
      },
      "id": 111
    },
    {
      "type": "Feature",
      "geometry": { "type": "Point", "coordinates": [-0.48781, 51.47237] },
      "properties": {
        "id": 111,
        "name": "Heathrow Terminal 5",
        "line": "Piccadilly"
      },
      "id": 111
    },
    {
      "type": "Feature",
      "geometry": { "type": "Point", "coordinates": [-0.178165, 51.518156] },
      "properties": { "id": 112, "name": "Paddington", "line": "Circle" },
      "id": 112
    },
    {
      "type": "Feature",
      "geometry": { "type": "Point", "coordinates": [-0.178165, 51.518156] },
      "properties": {
        "id": 112,
        "name": "Paddington",
        "line": "HammersmithAndCity"
      },
      "id": 112
    },
    {
      "type": "Feature",
      "geometry": { "type": "Point", "coordinates": [0.069, 51.49] },
      "properties": { "id": 113, "name": "Woolwich Arsenal", "line": "DLR" },
      "id": 113
    },
    {
      "type": "Feature",
      "geometry": { "type": "Point", "coordinates": [0.147684, 51.541627] },
      "properties": {
        "id": 114,
        "name": "Dagenham Heathway",
        "line": "District"
      },
      "id": 114
    },
    {
      "type": "Feature",
      "geometry": { "type": "Point", "coordinates": [-0.164232, 51.550427] },
      "properties": { "id": 115, "name": "Belsize Park", "line": "Northern" },
      "id": 115
    },
    {
      "type": "Feature",
      "geometry": { "type": "Point", "coordinates": [-0.07522, 51.39702] },
      "properties": {
        "id": 116,
        "name": "Norwood Junction",
        "line": "Overground"
      },
      "id": 116
    },
    {
      "type": "Feature",
      "geometry": { "type": "Point", "coordinates": [-0.128236, 51.511221] },
      "properties": {
        "id": 117,
        "name": "Leicester Square",
        "line": "Northern"
      },
      "id": 117
    },
    {
      "type": "Feature",
      "geometry": { "type": "Point", "coordinates": [-0.128236, 51.511221] },
      "properties": {
        "id": 117,
        "name": "Leicester Square",
        "line": "Piccadilly"
      },
      "id": 117
    },
    {
      "type": "Feature",
      "geometry": { "type": "Point", "coordinates": [-0.059568, 51.523916] },
      "properties": {
        "id": 118,
        "name": "Bethnal Green",
        "line": "Overground"
      },
      "id": 118
    },
    {
      "type": "Feature",
      "geometry": { "type": "Point", "coordinates": [0.329851, 51.630876] },
      "properties": { "id": 119, "name": "Shenfield", "line": "ElizabethLine" },
      "id": 119
    },
    {
      "type": "Feature",
      "geometry": { "type": "Point", "coordinates": [-0.38594, 51.62835] },
      "properties": {
        "id": 120,
        "name": "Carpenders Park",
        "line": "Overground"
      },
      "id": 120
    },
    {
      "type": "Feature",
      "geometry": { "type": "Point", "coordinates": [-0.153728, 51.544083] },
      "properties": { "id": 121, "name": "Chalk Farm", "line": "Northern" },
      "id": 121
    },
    {
      "type": "Feature",
      "geometry": { "type": "Point", "coordinates": [-0.135114, 51.565427] },
      "properties": { "id": 122, "name": "Archway", "line": "Northern" },
      "id": 122
    },
    {
      "type": "Feature",
      "geometry": { "type": "Point", "coordinates": [-0.133516, 51.61634] },
      "properties": { "id": 123, "name": "Arnos Grove", "line": "Piccadilly" },
      "id": 123
    },
    {
      "type": "Feature",
      "geometry": { "type": "Point", "coordinates": [-0.017467, 51.468819] },
      "properties": { "id": 124, "name": "Elverson Road", "line": "DLR" },
      "id": 124
    },
    {
      "type": "Feature",
      "geometry": { "type": "Point", "coordinates": [-0.254533, 51.495112] },
      "properties": { "id": 125, "name": "Turnham Green", "line": "District" },
      "id": 125
    },
    {
      "type": "Feature",
      "geometry": { "type": "Point", "coordinates": [-0.254533, 51.495112] },
      "properties": {
        "id": 125,
        "name": "Turnham Green",
        "line": "Piccadilly"
      },
      "id": 125
    },
    {
      "type": "Feature",
      "geometry": { "type": "Point", "coordinates": [-0.04235, 51.54702] },
      "properties": { "id": 126, "name": "Homerton", "line": "Overground" },
      "id": 126
    },
    {
      "type": "Feature",
      "geometry": { "type": "Point", "coordinates": [-0.02396, 51.702875] },
      "properties": { "id": 127, "name": "Cheshunt", "line": "Overground" },
      "id": 127
    },
    {
      "type": "Feature",
      "geometry": { "type": "Point", "coordinates": [-0.128847, 51.48] },
      "properties": { "id": 128, "name": "Nine Elms", "line": "Northern" },
      "id": 128
    },
    {
      "type": "Feature",
      "geometry": { "type": "Point", "coordinates": [-0.00325, 51.54129] },
      "properties": { "id": 129, "name": "Stratford", "line": "Central" },
      "id": 129
    },
    {
      "type": "Feature",
      "geometry": { "type": "Point", "coordinates": [-0.00325, 51.54129] },
      "properties": { "id": 129, "name": "Stratford", "line": "DLR" },
      "id": 129
    },
    {
      "type": "Feature",
      "geometry": { "type": "Point", "coordinates": [-0.00325, 51.54129] },
      "properties": { "id": 129, "name": "Stratford", "line": "ElizabethLine" },
      "id": 129
    },
    {
      "type": "Feature",
      "geometry": { "type": "Point", "coordinates": [-0.00325, 51.54129] },
      "properties": { "id": 129, "name": "Stratford", "line": "Jubilee" },
      "id": 129
    },
    {
      "type": "Feature",
      "geometry": { "type": "Point", "coordinates": [-0.00325, 51.54129] },
      "properties": { "id": 129, "name": "Stratford", "line": "Overground" },
      "id": 129
    },
    {
      "type": "Feature",
      "geometry": { "type": "Point", "coordinates": [-0.68137, 51.523561] },
      "properties": { "id": 130, "name": "Taplow", "line": "ElizabethLine" },
      "id": 130
    },
    {
      "type": "Feature",
      "geometry": { "type": "Point", "coordinates": [-0.06724, 51.614687] },
      "properties": {
        "id": 131,
        "name": "Silver Street",
        "line": "Overground"
      },
      "id": 131
    },
    {
      "type": "Feature",
      "geometry": { "type": "Point", "coordinates": [0.008215, 51.568185] },
      "properties": { "id": 132, "name": "Leytonstone", "line": "Central" },
      "id": 132
    },
    {
      "type": "Feature",
      "geometry": { "type": "Point", "coordinates": [-0.010195, 51.487902] },
      "properties": { "id": 133, "name": "Island Gardens", "line": "DLR" },
      "id": 133
    },
    {
      "type": "Feature",
      "geometry": { "type": "Point", "coordinates": [-0.02491, 51.54342] },
      "properties": { "id": 134, "name": "Hackney Wick", "line": "Overground" },
      "id": 134
    },
    {
      "type": "Feature",
      "geometry": { "type": "Point", "coordinates": [-0.193993, 51.572221] },
      "properties": { "id": 135, "name": "Golders Green", "line": "Northern" },
      "id": 135
    },
    {
      "type": "Feature",
      "geometry": { "type": "Point", "coordinates": [-0.19075, 51.546702] },
      "properties": { "id": 136, "name": "West Hampstead", "line": "Jubilee" },
      "id": 136
    },
    {
      "type": "Feature",
      "geometry": { "type": "Point", "coordinates": [-0.193966, 51.535069] },
      "properties": { "id": 137, "name": "Kilburn Park", "line": "Bakerloo" },
      "id": 137
    },
    {
      "type": "Feature",
      "geometry": { "type": "Point", "coordinates": [-0.421455, 51.571449] },
      "properties": { "id": 138, "name": "Ruislip", "line": "Metropolitan" },
      "id": 138
    },
    {
      "type": "Feature",
      "geometry": { "type": "Point", "coordinates": [-0.421455, 51.571449] },
      "properties": { "id": 138, "name": "Ruislip", "line": "Piccadilly" },
      "id": 138
    },
    {
      "type": "Feature",
      "geometry": { "type": "Point", "coordinates": [-0.05315, 51.43928] },
      "properties": { "id": 139, "name": "Forest Hill", "line": "Overground" },
      "id": 139
    },
    {
      "type": "Feature",
      "geometry": { "type": "Point", "coordinates": [0.101566, 51.538335] },
      "properties": { "id": 140, "name": "Upney", "line": "District" },
      "id": 140
    },
    {
      "type": "Feature",
      "geometry": { "type": "Point", "coordinates": [-0.188038, 51.512233] },
      "properties": { "id": 141, "name": "Bayswater", "line": "Circle" },
      "id": 141
    },
    {
      "type": "Feature",
      "geometry": { "type": "Point", "coordinates": [-0.188038, 51.512233] },
      "properties": { "id": 141, "name": "Bayswater", "line": "District" },
      "id": 141
    },
    {
      "type": "Feature",
      "geometry": { "type": "Point", "coordinates": [-0.280251, 51.50275] },
      "properties": { "id": 142, "name": "Acton Town", "line": "District" },
      "id": 142
    },
    {
      "type": "Feature",
      "geometry": { "type": "Point", "coordinates": [-0.280251, 51.50275] },
      "properties": { "id": 142, "name": "Acton Town", "line": "Piccadilly" },
      "id": 142
    },
    {
      "type": "Feature",
      "geometry": { "type": "Point", "coordinates": [0.113867, 51.693625] },
      "properties": { "id": 143, "name": "Epping", "line": "Central" },
      "id": 143
    },
    {
      "type": "Feature",
      "geometry": { "type": "Point", "coordinates": [-0.061112, 51.624927] },
      "properties": {
        "id": 144,
        "name": "Edmonton Green",
        "line": "Overground"
      },
      "id": 144
    },
    {
      "type": "Feature",
      "geometry": { "type": "Point", "coordinates": [-0.112926, 51.552751] },
      "properties": {
        "id": 145,
        "name": "Holloway Road",
        "line": "Piccadilly"
      },
      "id": 145
    },
    {
      "type": "Feature",
      "geometry": { "type": "Point", "coordinates": [-0.122842, 51.485913] },
      "properties": { "id": 146, "name": "Vauxhall", "line": "Victoria" },
      "id": 146
    },
    {
      "type": "Feature",
      "geometry": { "type": "Point", "coordinates": [0.003607, 51.500182] },
      "properties": { "id": 147, "name": "North Greenwich", "line": "Jubilee" },
      "id": 147
    },
    {
      "type": "Feature",
      "geometry": { "type": "Point", "coordinates": [-0.033289, 51.525082] },
      "properties": { "id": 148, "name": "Mile End", "line": "Central" },
      "id": 148
    },
    {
      "type": "Feature",
      "geometry": { "type": "Point", "coordinates": [-0.033289, 51.525082] },
      "properties": { "id": 148, "name": "Mile End", "line": "District" },
      "id": 148
    },
    {
      "type": "Feature",
      "geometry": { "type": "Point", "coordinates": [-0.033289, 51.525082] },
      "properties": {
        "id": 148,
        "name": "Mile End",
        "line": "HammersmithAndCity"
      },
      "id": 148
    },
    {
      "type": "Feature",
      "geometry": { "type": "Point", "coordinates": [-0.02147, 51.503018] },
      "properties": { "id": 149, "name": "Heron Quays", "line": "DLR" },
      "id": 149
    },
    {
      "type": "Feature",
      "geometry": { "type": "Point", "coordinates": [-0.000222, 51.608348] },
      "properties": { "id": 150, "name": "Highams Park", "line": "Overground" },
      "id": 150
    },
    {
      "type": "Feature",
      "geometry": { "type": "Point", "coordinates": [-0.063651, 51.497949] },
      "properties": { "id": 151, "name": "Bermondsey", "line": "Jubilee" },
      "id": 151
    },
    {
      "type": "Feature",
      "geometry": { "type": "Point", "coordinates": [0.027317, 51.591726] },
      "properties": { "id": 152, "name": "South Woodford", "line": "Central" },
      "id": 152
    },
    {
      "type": "Feature",
      "geometry": { "type": "Point", "coordinates": [-0.205729, 51.507334] },
      "properties": { "id": 153, "name": "Holland Park", "line": "Central" },
      "id": 153
    },
    {
      "type": "Feature",
      "geometry": { "type": "Point", "coordinates": [-0.07566, 51.53871] },
      "properties": { "id": 154, "name": "Haggerston", "line": "Overground" },
      "id": 154
    },
    {
      "type": "Feature",
      "geometry": { "type": "Point", "coordinates": [0.110807, 51.565577] },
      "properties": { "id": 155, "name": "Goodmayes", "line": "ElizabethLine" },
      "id": 155
    },
    {
      "type": "Feature",
      "geometry": { "type": "Point", "coordinates": [-0.024824, 51.5268] },
      "properties": { "id": 156, "name": "Bow Road", "line": "District" },
      "id": 156
    },
    {
      "type": "Feature",
      "geometry": { "type": "Point", "coordinates": [-0.024824, 51.5268] },
      "properties": {
        "id": 156,
        "name": "Bow Road",
        "line": "HammersmithAndCity"
      },
      "id": 156
    },
    {
      "type": "Feature",
      "geometry": { "type": "Point", "coordinates": [-0.3686, 51.60942] },
      "properties": { "id": 157, "name": "Hatch End", "line": "Overground" },
      "id": 157
    },
    {
      "type": "Feature",
      "geometry": { "type": "Point", "coordinates": [-0.00804, 51.56973] },
      "properties": {
        "id": 158,
        "name": "Leyton Midland Road",
        "line": "Overground"
      },
      "id": 158
    },
    {
      "type": "Feature",
      "geometry": { "type": "Point", "coordinates": [-0.17717, 51.515858] },
      "properties": {
        "id": 159,
        "name": "Paddington",
        "line": "ElizabethLine"
      },
      "id": 159
    },
    {
      "type": "Feature",
      "geometry": { "type": "Point", "coordinates": [-0.323852, 51.536594] },
      "properties": { "id": 160, "name": "Perivale", "line": "Central" },
      "id": 160
    },
    {
      "type": "Feature",
      "geometry": { "type": "Point", "coordinates": [-0.37861, 51.505955] },
      "properties": { "id": 161, "name": "Southall", "line": "ElizabethLine" },
      "id": 161
    },
    {
      "type": "Feature",
      "geometry": { "type": "Point", "coordinates": [-0.162727, 51.522896] },
      "properties": { "id": 162, "name": "Marylebone", "line": "Bakerloo" },
      "id": 162
    },
    {
      "type": "Feature",
      "geometry": { "type": "Point", "coordinates": [0.092146, 51.61335] },
      "properties": { "id": 163, "name": "Grange Hill", "line": "Central" },
      "id": 163
    },
    {
      "type": "Feature",
      "geometry": { "type": "Point", "coordinates": [-0.007194, 51.507922] },
      "properties": { "id": 164, "name": "Blackwall", "line": "DLR" },
      "id": 164
    },
    {
      "type": "Feature",
      "geometry": { "type": "Point", "coordinates": [-0.124873, 51.508152] },
      "properties": { "id": 165, "name": "Charing Cross", "line": "Bakerloo" },
      "id": 165
    },
    {
      "type": "Feature",
      "geometry": { "type": "Point", "coordinates": [-0.124873, 51.508152] },
      "properties": { "id": 165, "name": "Charing Cross", "line": "Northern" },
      "id": 165
    },
    {
      "type": "Feature",
      "geometry": { "type": "Point", "coordinates": [-0.20231, 51.54517] },
      "properties": { "id": 166, "name": "Brondesbury", "line": "Overground" },
      "id": 166
    },
    {
      "type": "Feature",
      "geometry": { "type": "Point", "coordinates": [-0.097711, 51.520146] },
      "properties": { "id": 167, "name": "Barbican", "line": "Circle" },
      "id": 167
    },
    {
      "type": "Feature",
      "geometry": { "type": "Point", "coordinates": [-0.097711, 51.520146] },
      "properties": {
        "id": 167,
        "name": "Barbican",
        "line": "HammersmithAndCity"
      },
      "id": 167
    },
    {
      "type": "Feature",
      "geometry": { "type": "Point", "coordinates": [-0.097711, 51.520146] },
      "properties": { "id": 167, "name": "Barbican", "line": "Metropolitan" },
      "id": 167
    },
    {
      "type": "Feature",
      "geometry": { "type": "Point", "coordinates": [0.04443, 51.54927] },
      "properties": {
        "id": 168,
        "name": "Woodgrange Park",
        "line": "Overground"
      },
      "id": 168
    },
    {
      "type": "Feature",
      "geometry": { "type": "Point", "coordinates": [0.251087, 51.558889] },
      "properties": { "id": 169, "name": "Upminster", "line": "District" },
      "id": 169
    },
    {
      "type": "Feature",
      "geometry": { "type": "Point", "coordinates": [0.251087, 51.558889] },
      "properties": { "id": 169, "name": "Upminster", "line": "Overground" },
      "id": 169
    },
    {
      "type": "Feature",
      "geometry": { "type": "Point", "coordinates": [-0.301221, 51.5149] },
      "properties": { "id": 170, "name": "Ealing Broadway", "line": "Central" },
      "id": 170
    },
    {
      "type": "Feature",
      "geometry": { "type": "Point", "coordinates": [-0.301221, 51.5149] },
      "properties": { "id": 170, "name": "Ealing Broadway", "line": "Circle" },
      "id": 170
    },
    {
      "type": "Feature",
      "geometry": { "type": "Point", "coordinates": [-0.301221, 51.5149] },
      "properties": {
        "id": 170,
        "name": "Ealing Broadway",
        "line": "District"
      },
      "id": 170
    },
    {
      "type": "Feature",
      "geometry": { "type": "Point", "coordinates": [-0.301221, 51.5149] },
      "properties": {
        "id": 170,
        "name": "Ealing Broadway",
        "line": "ElizabethLine"
      },
      "id": 170
    },
    {
      "type": "Feature",
      "geometry": { "type": "Point", "coordinates": [-0.560535, 51.668025] },
      "properties": {
        "id": 171,
        "name": "Chalfont & Latimer",
        "line": "Metropolitan"
      },
      "id": 171
    },
    {
      "type": "Feature",
      "geometry": { "type": "Point", "coordinates": [-0.00841, 51.5457] },
      "properties": {
        "id": 172,
        "name": "Stratford International",
        "line": "DLR"
      },
      "id": 172
    },
    {
      "type": "Feature",
      "geometry": { "type": "Point", "coordinates": [-0.206327, 51.490545] },
      "properties": {
        "id": 173,
        "name": "West Kensington",
        "line": "District"
      },
      "id": 173
    },
    {
      "type": "Feature",
      "geometry": { "type": "Point", "coordinates": [-0.185626, 51.52976] },
      "properties": { "id": 174, "name": "Maida Vale", "line": "Bakerloo" },
      "id": 174
    },
    {
      "type": "Feature",
      "geometry": { "type": "Point", "coordinates": [-0.141769, 51.515124] },
      "properties": { "id": 175, "name": "Oxford Circus", "line": "Bakerloo" },
      "id": 175
    },
    {
      "type": "Feature",
      "geometry": { "type": "Point", "coordinates": [-0.141769, 51.515124] },
      "properties": { "id": 175, "name": "Oxford Circus", "line": "Central" },
      "id": 175
    },
    {
      "type": "Feature",
      "geometry": { "type": "Point", "coordinates": [-0.141769, 51.515124] },
      "properties": { "id": 175, "name": "Oxford Circus", "line": "Victoria" },
      "id": 175
    },
    {
      "type": "Feature",
      "geometry": { "type": "Point", "coordinates": [-0.013963, 51.53394] },
      "properties": { "id": 176, "name": "Pudding Mill Lane", "line": "DLR" },
      "id": 176
    },
    {
      "type": "Feature",
      "geometry": { "type": "Point", "coordinates": [-0.213456, 51.5768] },
      "properties": { "id": 177, "name": "Brent Cross", "line": "Northern" },
      "id": 177
    },
    {
      "type": "Feature",
      "geometry": { "type": "Point", "coordinates": [-0.192503, 51.500673] },
      "properties": {
        "id": 178,
        "name": "High Street Kensington",
        "line": "Circle"
      },
      "id": 178
    },
    {
      "type": "Feature",
      "geometry": { "type": "Point", "coordinates": [-0.192503, 51.500673] },
      "properties": {
        "id": 178,
        "name": "High Street Kensington",
        "line": "District"
      },
      "id": 178
    },
    {
      "type": "Feature",
      "geometry": { "type": "Point", "coordinates": [-0.016284, 51.500105] },
      "properties": { "id": 179, "name": "South Quay", "line": "DLR" },
      "id": 179
    },
    {
      "type": "Feature",
      "geometry": { "type": "Point", "coordinates": [-0.002749, 51.509041] },
      "properties": { "id": 180, "name": "East India", "line": "DLR" },
      "id": 180
    },
    {
      "type": "Feature",
      "geometry": { "type": "Point", "coordinates": [-0.057177, 51.54705] },
      "properties": {
        "id": 181,
        "name": "Hackney Central",
        "line": "Overground"
      },
      "id": 181
    },
    {
      "type": "Feature",
      "geometry": { "type": "Point", "coordinates": [-0.21996, 51.53456] },
      "properties": { "id": 182, "name": "Kensal Rise", "line": "Overground" },
      "id": 182
    },
    {
      "type": "Feature",
      "geometry": { "type": "Point", "coordinates": [-0.103767, 51.511585] },
      "properties": { "id": 183, "name": "Blackfriars", "line": "Circle" },
      "id": 183
    },
    {
      "type": "Feature",
      "geometry": { "type": "Point", "coordinates": [-0.103767, 51.511585] },
      "properties": { "id": 183, "name": "Blackfriars", "line": "District" },
      "id": 183
    },
    {
      "type": "Feature",
      "geometry": { "type": "Point", "coordinates": [-0.473712, 51.640273] },
      "properties": {
        "id": 184,
        "name": "Rickmansworth",
        "line": "Metropolitan"
      },
      "id": 184
    },
    {
      "type": "Feature",
      "geometry": { "type": "Point", "coordinates": [-0.173922, 51.494] },
      "properties": { "id": 185, "name": "South Kensington", "line": "Circle" },
      "id": 185
    },
    {
      "type": "Feature",
      "geometry": { "type": "Point", "coordinates": [-0.173922, 51.494] },
      "properties": {
        "id": 185,
        "name": "South Kensington",
        "line": "District"
      },
      "id": 185
    },
    {
      "type": "Feature",
      "geometry": { "type": "Point", "coordinates": [-0.173922, 51.494] },
      "properties": {
        "id": 185,
        "name": "South Kensington",
        "line": "Piccadilly"
      },
      "id": 185
    },
    {
      "type": "Feature",
      "geometry": { "type": "Point", "coordinates": [-0.097574, 51.514801] },
      "properties": { "id": 186, "name": "St Paul's", "line": "Central" },
      "id": 186
    },
    {
      "type": "Feature",
      "geometry": { "type": "Point", "coordinates": [-0.18823, 51.519017] },
      "properties": { "id": 187, "name": "Royal Oak", "line": "Circle" },
      "id": 187
    },
    {
      "type": "Feature",
      "geometry": { "type": "Point", "coordinates": [-0.18823, 51.519017] },
      "properties": {
        "id": 187,
        "name": "Royal Oak",
        "line": "HammersmithAndCity"
      },
      "id": 187
    },
    {
      "type": "Feature",
      "geometry": { "type": "Point", "coordinates": [-0.192447, 51.600976] },
      "properties": {
        "id": 188,
        "name": "Finchley Central",
        "line": "Northern"
      },
      "id": 188
    },
    {
      "type": "Feature",
      "geometry": { "type": "Point", "coordinates": [-0.356695, 51.473171] },
      "properties": {
        "id": 189,
        "name": "Hounslow East",
        "line": "Piccadilly"
      },
      "id": 189
    },
    {
      "type": "Feature",
      "geometry": { "type": "Point", "coordinates": [-0.646374, 51.523504] },
      "properties": { "id": 190, "name": "Burnham", "line": "ElizabethLine" },
      "id": 190
    },
    {
      "type": "Feature",
      "geometry": { "type": "Point", "coordinates": [-0.423409, 51.466614] },
      "properties": { "id": 191, "name": "Hatton Cross", "line": "Piccadilly" },
      "id": 191
    },
    {
      "type": "Feature",
      "geometry": { "type": "Point", "coordinates": [-0.014199, 51.477758] },
      "properties": { "id": 192, "name": "Greenwich", "line": "DLR" },
      "id": 192
    },
    {
      "type": "Feature",
      "geometry": { "type": "Point", "coordinates": [-0.164738, 51.587272] },
      "properties": { "id": 193, "name": "East Finchley", "line": "Northern" },
      "id": 193
    },
    {
      "type": "Feature",
      "geometry": { "type": "Point", "coordinates": [-0.079328, 51.652024] },
      "properties": { "id": 194, "name": "Enfield Town", "line": "Overground" },
      "id": 194
    },
    {
      "type": "Feature",
      "geometry": { "type": "Point", "coordinates": [-0.068267, 51.558501] },
      "properties": { "id": 195, "name": "Rectory Road", "line": "Overground" },
      "id": 195
    },
    {
      "type": "Feature",
      "geometry": { "type": "Point", "coordinates": [-0.412346, 51.573188] },
      "properties": {
        "id": 196,
        "name": "Ruislip Manor",
        "line": "Metropolitan"
      },
      "id": 196
    },
    {
      "type": "Feature",
      "geometry": { "type": "Point", "coordinates": [-0.412346, 51.573188] },
      "properties": {
        "id": 196,
        "name": "Ruislip Manor",
        "line": "Piccadilly"
      },
      "id": 196
    },
    {
      "type": "Feature",
      "geometry": { "type": "Point", "coordinates": [-0.049706, 51.497889] },
      "properties": { "id": 197, "name": "Canada Water", "line": "Jubilee" },
      "id": 197
    },
    {
      "type": "Feature",
      "geometry": { "type": "Point", "coordinates": [-0.049706, 51.497889] },
      "properties": { "id": 197, "name": "Canada Water", "line": "Overground" },
      "id": 197
    },
    {
      "type": "Feature",
      "geometry": { "type": "Point", "coordinates": [0.183237, 51.574827] },
      "properties": { "id": 198, "name": "Romford", "line": "ElizabethLine" },
      "id": 198
    },
    {
      "type": "Feature",
      "geometry": { "type": "Point", "coordinates": [0.183237, 51.574827] },
      "properties": { "id": 198, "name": "Romford", "line": "Overground" },
      "id": 198
    },
    {
      "type": "Feature",
      "geometry": { "type": "Point", "coordinates": [0.046744, 51.626517] },
      "properties": { "id": 199, "name": "Buckhurst Hill", "line": "Central" },
      "id": 199
    },
    {
      "type": "Feature",
      "geometry": { "type": "Point", "coordinates": [-0.055814, 51.511742] },
      "properties": { "id": 200, "name": "Shadwell", "line": "DLR" },
      "id": 200
    },
    {
      "type": "Feature",
      "geometry": { "type": "Point", "coordinates": [-0.307019, 51.501368] },
      "properties": { "id": 201, "name": "South Ealing", "line": "Piccadilly" },
      "id": 201
    },
    {
      "type": "Feature",
      "geometry": { "type": "Point", "coordinates": [-0.35305, 51.579551] },
      "properties": {
        "id": 202,
        "name": "West Harrow",
        "line": "Metropolitan"
      },
      "id": 202
    },
    {
      "type": "Feature",
      "geometry": { "type": "Point", "coordinates": [-0.320133, 51.513504] },
      "properties": {
        "id": 203,
        "name": "West Ealing",
        "line": "ElizabethLine"
      },
      "id": 203
    },
    {
      "type": "Feature",
      "geometry": { "type": "Point", "coordinates": [-0.102792, 51.590297] },
      "properties": {
        "id": 204,
        "name": "Turnpike Lane",
        "line": "Piccadilly"
      },
      "id": 204
    },
    {
      "type": "Feature",
      "geometry": { "type": "Point", "coordinates": [-0.420684, 51.503094] },
      "properties": {
        "id": 205,
        "name": "Hayes & Harlington",
        "line": "ElizabethLine"
      },
      "id": 205
    },
    {
      "type": "Feature",
      "geometry": { "type": "Point", "coordinates": [0.115945, 51.519391] },
      "properties": {
        "id": 206,
        "name": "Barking Riverside",
        "line": "Overground"
      },
      "id": 206
    },
    {
      "type": "Feature",
      "geometry": { "type": "Point", "coordinates": [-0.06941, 51.47004] },
      "properties": { "id": 207, "name": "Peckham Rye", "line": "Overground" },
      "id": 207
    },
    {
      "type": "Feature",
      "geometry": { "type": "Point", "coordinates": [-0.142726, 51.539404] },
      "properties": { "id": 208, "name": "Camden Town", "line": "Northern" },
      "id": 208
    },
    {
      "type": "Feature",
      "geometry": { "type": "Point", "coordinates": [-0.371006, 51.574977] },
      "properties": {
        "id": 209,
        "name": "Rayners Lane",
        "line": "Metropolitan"
      },
      "id": 209
    },
    {
      "type": "Feature",
      "geometry": { "type": "Point", "coordinates": [-0.371006, 51.574977] },
      "properties": { "id": 209, "name": "Rayners Lane", "line": "Piccadilly" },
      "id": 209
    },
    {
      "type": "Feature",
      "geometry": { "type": "Point", "coordinates": [-0.31667, 51.581321] },
      "properties": { "id": 210, "name": "Kenton", "line": "Bakerloo" },
      "id": 210
    },
    {
      "type": "Feature",
      "geometry": { "type": "Point", "coordinates": [-0.31667, 51.581321] },
      "properties": { "id": 210, "name": "Kenton", "line": "Overground" },
      "id": 210
    },
    {
      "type": "Feature",
      "geometry": { "type": "Point", "coordinates": [-0.105485, 51.48812] },
      "properties": { "id": 211, "name": "Kennington", "line": "Northern" },
      "id": 211
    },
    {
      "type": "Feature",
      "geometry": { "type": "Point", "coordinates": [0.033642, 51.509366] },
      "properties": { "id": 212, "name": "Prince Regent", "line": "DLR" },
      "id": 212
    },
    {
      "type": "Feature",
      "geometry": { "type": "Point", "coordinates": [-0.247513, 51.516582] },
      "properties": { "id": 213, "name": "East Acton", "line": "Central" },
      "id": 213
    },
    {
      "type": "Feature",
      "geometry": { "type": "Point", "coordinates": [-0.314157, 51.499276] },
      "properties": { "id": 214, "name": "Northfields", "line": "Piccadilly" },
      "id": 214
    },
    {
      "type": "Feature",
      "geometry": { "type": "Point", "coordinates": [0.069679, 51.559116] },
      "properties": { "id": 215, "name": "Ilford", "line": "ElizabethLine" },
      "id": 215
    },
    {
      "type": "Feature",
      "geometry": { "type": "Point", "coordinates": [-0.032918, 51.580979] },
      "properties": {
        "id": 216,
        "name": "St James Street",
        "line": "Overground"
      },
      "id": 216
    },
    {
      "type": "Feature",
      "geometry": { "type": "Point", "coordinates": [0.093119, 51.603727] },
      "properties": { "id": 217, "name": "Hainault", "line": "Central" },
      "id": 217
    },
    {
      "type": "Feature",
      "geometry": { "type": "Point", "coordinates": [-0.026772, 51.509319] },
      "properties": { "id": 218, "name": "Westferry", "line": "DLR" },
      "id": 218
    },
    {
      "type": "Feature",
      "geometry": { "type": "Point", "coordinates": [-0.278735, 51.584264] },
      "properties": { "id": 219, "name": "Kingsbury", "line": "Jubilee" },
      "id": 219
    },
    {
      "type": "Feature",
      "geometry": { "type": "Point", "coordinates": [-0.142927, 51.50685] },
      "properties": { "id": 220, "name": "Green Park", "line": "Jubilee" },
      "id": 220
    },
    {
      "type": "Feature",
      "geometry": { "type": "Point", "coordinates": [-0.142927, 51.50685] },
      "properties": { "id": 220, "name": "Green Park", "line": "Piccadilly" },
      "id": 220
    },
    {
      "type": "Feature",
      "geometry": { "type": "Point", "coordinates": [-0.142927, 51.50685] },
      "properties": { "id": 220, "name": "Green Park", "line": "Victoria" },
      "id": 220
    },
    {
      "type": "Feature",
      "geometry": { "type": "Point", "coordinates": [-0.114756, 51.510877] },
      "properties": { "id": 221, "name": "Temple", "line": "Circle" },
      "id": 221
    },
    {
      "type": "Feature",
      "geometry": { "type": "Point", "coordinates": [-0.114756, 51.510877] },
      "properties": { "id": 221, "name": "Temple", "line": "District" },
      "id": 221
    },
    {
      "type": "Feature",
      "geometry": { "type": "Point", "coordinates": [-0.224254, 51.511978] },
      "properties": { "id": 222, "name": "White City", "line": "Central" },
      "id": 222
    },
    {
      "type": "Feature",
      "geometry": { "type": "Point", "coordinates": [-0.1333, 51.499578] },
      "properties": { "id": 223, "name": "St James's Park", "line": "Circle" },
      "id": 223
    },
    {
      "type": "Feature",
      "geometry": { "type": "Point", "coordinates": [-0.1333, 51.499578] },
      "properties": {
        "id": 223,
        "name": "St James's Park",
        "line": "District"
      },
      "id": 223
    },
    {
      "type": "Feature",
      "geometry": { "type": "Point", "coordinates": [-0.449926, 51.553717] },
      "properties": { "id": 224, "name": "Hillingdon", "line": "Metropolitan" },
      "id": 224
    },
    {
      "type": "Feature",
      "geometry": { "type": "Point", "coordinates": [-0.449926, 51.553717] },
      "properties": { "id": 224, "name": "Hillingdon", "line": "Piccadilly" },
      "id": 224
    },
    {
      "type": "Feature",
      "geometry": { "type": "Point", "coordinates": [-0.195541, 51.487257] },
      "properties": { "id": 225, "name": "West Brompton", "line": "District" },
      "id": 225
    },
    {
      "type": "Feature",
      "geometry": { "type": "Point", "coordinates": [-0.195541, 51.487257] },
      "properties": {
        "id": 225,
        "name": "West Brompton",
        "line": "Overground"
      },
      "id": 225
    },
    {
      "type": "Feature",
      "geometry": { "type": "Point", "coordinates": [0.083838, 51.645434] },
      "properties": { "id": 226, "name": "Debden", "line": "Central" },
      "id": 226
    },
    {
      "type": "Feature",
      "geometry": { "type": "Point", "coordinates": [-0.294654, 51.60776] },
      "properties": { "id": 227, "name": "Canons Park", "line": "Jubilee" },
      "id": 227
    },
    {
      "type": "Feature",
      "geometry": { "type": "Point", "coordinates": [-0.017484, 51.506131] },
      "properties": {
        "id": 228,
        "name": "Canary Wharf",
        "line": "ElizabethLine"
      },
      "id": 228
    },
    {
      "type": "Feature",
      "geometry": { "type": "Point", "coordinates": [-0.093703, 51.501194] },
      "properties": { "id": 229, "name": "Borough", "line": "Northern" },
      "id": 229
    },
    {
      "type": "Feature",
      "geometry": { "type": "Point", "coordinates": [-0.138311, 51.461728] },
      "properties": { "id": 230, "name": "Clapham Common", "line": "Northern" },
      "id": 230
    },
    {
      "type": "Feature",
      "geometry": { "type": "Point", "coordinates": [0.048323, 51.503496] },
      "properties": { "id": 231, "name": "London City Airport", "line": "DLR" },
      "id": 231
    },
    {
      "type": "Feature",
      "geometry": { "type": "Point", "coordinates": [-0.245626, 51.494916] },
      "properties": { "id": 232, "name": "Stamford Brook", "line": "District" },
      "id": 232
    },
    {
      "type": "Feature",
      "geometry": { "type": "Point", "coordinates": [-0.266756, 51.517178] },
      "properties": {
        "id": 233,
        "name": "Acton Main Line",
        "line": "ElizabethLine"
      },
      "id": 233
    },
    {
      "type": "Feature",
      "geometry": { "type": "Point", "coordinates": [-0.26297, 51.50872] },
      "properties": {
        "id": 234,
        "name": "Acton Central",
        "line": "Overground"
      },
      "id": 234
    },
    {
      "type": "Feature",
      "geometry": { "type": "Point", "coordinates": [-0.17887, 51.54144] },
      "properties": {
        "id": 235,
        "name": "South Hampstead",
        "line": "Overground"
      },
      "id": 235
    },
    {
      "type": "Feature",
      "geometry": { "type": "Point", "coordinates": [0.02622, 51.5517] },
      "properties": {
        "id": 236,
        "name": "Wanstead Park",
        "line": "Overground"
      },
      "id": 236
    },
    {
      "type": "Feature",
      "geometry": { "type": "Point", "coordinates": [-0.196538, 51.509064] },
      "properties": {
        "id": 237,
        "name": "Notting Hill Gate",
        "line": "Central"
      },
      "id": 237
    },
    {
      "type": "Feature",
      "geometry": { "type": "Point", "coordinates": [-0.196538, 51.509064] },
      "properties": {
        "id": 237,
        "name": "Notting Hill Gate",
        "line": "Circle"
      },
      "id": 237
    },
    {
      "type": "Feature",
      "geometry": { "type": "Point", "coordinates": [-0.196538, 51.509064] },
      "properties": {
        "id": 237,
        "name": "Notting Hill Gate",
        "line": "District"
      },
      "id": 237
    },
    {
      "type": "Feature",
      "geometry": { "type": "Point", "coordinates": [-0.09219, 51.54874] },
      "properties": { "id": 238, "name": "Canonbury", "line": "Overground" },
      "id": 238
    },
    {
      "type": "Feature",
      "geometry": { "type": "Point", "coordinates": [-0.223988, 51.492519] },
      "properties": { "id": 239, "name": "Hammersmith", "line": "District" },
      "id": 239
    },
    {
      "type": "Feature",
      "geometry": { "type": "Point", "coordinates": [-0.223988, 51.492519] },
      "properties": { "id": 239, "name": "Hammersmith", "line": "Piccadilly" },
      "id": 239
    },
    {
      "type": "Feature",
      "geometry": { "type": "Point", "coordinates": [-0.134662, 51.520425] },
      "properties": { "id": 240, "name": "Goodge Street", "line": "Northern" },
      "id": 240
    },
    {
      "type": "Feature",
      "geometry": { "type": "Point", "coordinates": [-0.417281, 51.657421] },
      "properties": { "id": 241, "name": "Watford", "line": "Metropolitan" },
      "id": 241
    },
    {
      "type": "Feature",
      "geometry": { "type": "Point", "coordinates": [-0.134006, 51.510027] },
      "properties": {
        "id": 242,
        "name": "Piccadilly Circus",
        "line": "Bakerloo"
      },
      "id": 242
    },
    {
      "type": "Feature",
      "geometry": { "type": "Point", "coordinates": [-0.134006, 51.510027] },
      "properties": {
        "id": 242,
        "name": "Piccadilly Circus",
        "line": "Piccadilly"
      },
      "id": 242
    },
    {
      "type": "Feature",
      "geometry": { "type": "Point", "coordinates": [-0.324764, 51.495696] },
      "properties": { "id": 243, "name": "Boston Manor", "line": "Piccadilly" },
      "id": 243
    },
    {
      "type": "Feature",
      "geometry": { "type": "Point", "coordinates": [0.051476, 51.538926] },
      "properties": { "id": 244, "name": "East Ham", "line": "District" },
      "id": 244
    },
    {
      "type": "Feature",
      "geometry": { "type": "Point", "coordinates": [0.051476, 51.538926] },
      "properties": {
        "id": 244,
        "name": "East Ham",
        "line": "HammersmithAndCity"
      },
      "id": 244
    },
    {
      "type": "Feature",
      "geometry": { "type": "Point", "coordinates": [-0.27016, 51.4997] },
      "properties": { "id": 245, "name": "South Acton", "line": "Overground" },
      "id": 245
    },
    {
      "type": "Feature",
      "geometry": { "type": "Point", "coordinates": [-0.35722, 51.60265] },
      "properties": {
        "id": 246,
        "name": "Headstone Lane",
        "line": "Overground"
      },
      "id": 246
    },
    {
      "type": "Feature",
      "geometry": { "type": "Point", "coordinates": [-0.069221, 51.641517] },
      "properties": {
        "id": 247,
        "name": "Bush Hill Park",
        "line": "Overground"
      },
      "id": 247
    },
    {
      "type": "Feature",
      "geometry": { "type": "Point", "coordinates": [-0.1387, 51.5418] },
      "properties": { "id": 248, "name": "Camden Road", "line": "Overground" },
      "id": 248
    },
    {
      "type": "Feature",
      "geometry": { "type": "Point", "coordinates": [-0.244289, 51.532191] },
      "properties": {
        "id": 249,
        "name": "Willesden Junction",
        "line": "Bakerloo"
      },
      "id": 249
    },
    {
      "type": "Feature",
      "geometry": { "type": "Point", "coordinates": [-0.244289, 51.532191] },
      "properties": {
        "id": 249,
        "name": "Willesden Junction",
        "line": "Overground"
      },
      "id": 249
    },
    {
      "type": "Feature",
      "geometry": { "type": "Point", "coordinates": [-0.160507, 51.501551] },
      "properties": {
        "id": 250,
        "name": "Knightsbridge",
        "line": "Piccadilly"
      },
      "id": 250
    },
    {
      "type": "Feature",
      "geometry": { "type": "Point", "coordinates": [-0.142436, 51.479836] },
      "properties": {
        "id": 251,
        "name": "Battersea Power Station",
        "line": "Northern"
      },
      "id": 251
    },
    {
      "type": "Feature",
      "geometry": { "type": "Point", "coordinates": [-0.114636, 51.462581] },
      "properties": { "id": 252, "name": "Brixton", "line": "Victoria" },
      "id": 252
    },
    {
      "type": "Feature",
      "geometry": { "type": "Point", "coordinates": [-0.046875, 51.522026] },
      "properties": { "id": 253, "name": "Stepney Green", "line": "District" },
      "id": 253
    },
    {
      "type": "Feature",
      "geometry": { "type": "Point", "coordinates": [-0.046875, 51.522026] },
      "properties": {
        "id": 253,
        "name": "Stepney Green",
        "line": "HammersmithAndCity"
      },
      "id": 253
    },
    {
      "type": "Feature",
      "geometry": { "type": "Point", "coordinates": [-0.264199, 51.602681] },
      "properties": { "id": 254, "name": "Burnt Oak", "line": "Northern" },
      "id": 254
    },
    {
      "type": "Feature",
      "geometry": { "type": "Point", "coordinates": [0.034037, 51.607033] },
      "properties": { "id": 255, "name": "Woodford", "line": "Central" },
      "id": 255
    },
    {
      "type": "Feature",
      "geometry": { "type": "Point", "coordinates": [-0.351994, 51.480929] },
      "properties": { "id": 256, "name": "Osterley", "line": "Piccadilly" },
      "id": 256
    },
    {
      "type": "Feature",
      "geometry": { "type": "Point", "coordinates": [-0.224167, 51.509797] },
      "properties": { "id": 257, "name": "Wood Lane", "line": "Circle" },
      "id": 257
    },
    {
      "type": "Feature",
      "geometry": { "type": "Point", "coordinates": [-0.224167, 51.509797] },
      "properties": {
        "id": 257,
        "name": "Wood Lane",
        "line": "HammersmithAndCity"
      },
      "id": 257
    },
    {
      "type": "Feature",
      "geometry": { "type": "Point", "coordinates": [0.00842, 51.56356] },
      "properties": {
        "id": 258,
        "name": "Leytonstone High Road",
        "line": "Overground"
      },
      "id": 258
    },
    {
      "type": "Feature",
      "geometry": { "type": "Point", "coordinates": [0.0042, 51.5207] },
      "properties": { "id": 259, "name": "Star Lane", "line": "DLR" },
      "id": 259
    },
    {
      "type": "Feature",
      "geometry": { "type": "Point", "coordinates": [-0.607479, 51.67415] },
      "properties": { "id": 260, "name": "Amersham", "line": "Metropolitan" },
      "id": 260
    },
    {
      "type": "Feature",
      "geometry": { "type": "Point", "coordinates": [-0.286322, 51.594054] },
      "properties": { "id": 261, "name": "Queensbury", "line": "Jubilee" },
      "id": 261
    },
    {
      "type": "Feature",
      "geometry": { "type": "Point", "coordinates": [0.080863, 51.539451] },
      "properties": { "id": 262, "name": "Barking", "line": "District" },
      "id": 262
    },
    {
      "type": "Feature",
      "geometry": { "type": "Point", "coordinates": [0.080863, 51.539451] },
      "properties": {
        "id": 262,
        "name": "Barking",
        "line": "HammersmithAndCity"
      },
      "id": 262
    },
    {
      "type": "Feature",
      "geometry": { "type": "Point", "coordinates": [0.080863, 51.539451] },
      "properties": { "id": 262, "name": "Barking", "line": "Overground" },
      "id": 262
    },
    {
      "type": "Feature",
      "geometry": { "type": "Point", "coordinates": [-0.129531, 51.464844] },
      "properties": { "id": 263, "name": "Clapham North", "line": "Northern" },
      "id": 263
    },
    {
      "type": "Feature",
      "geometry": { "type": "Point", "coordinates": [-0.1569, 51.523061] },
      "properties": { "id": 264, "name": "Baker Street", "line": "Bakerloo" },
      "id": 264
    },
    {
      "type": "Feature",
      "geometry": { "type": "Point", "coordinates": [-0.1569, 51.523061] },
      "properties": { "id": 264, "name": "Baker Street", "line": "Circle" },
      "id": 264
    },
    {
      "type": "Feature",
      "geometry": { "type": "Point", "coordinates": [-0.1569, 51.523061] },
      "properties": {
        "id": 264,
        "name": "Baker Street",
        "line": "HammersmithAndCity"
      },
      "id": 264
    },
    {
      "type": "Feature",
      "geometry": { "type": "Point", "coordinates": [-0.1569, 51.523061] },
      "properties": { "id": 264, "name": "Baker Street", "line": "Jubilee" },
      "id": 264
    },
    {
      "type": "Feature",
      "geometry": { "type": "Point", "coordinates": [-0.1569, 51.523061] },
      "properties": {
        "id": 264,
        "name": "Baker Street",
        "line": "Metropolitan"
      },
      "id": 264
    },
    {
      "type": "Feature",
      "geometry": { "type": "Point", "coordinates": [0.033281, 51.502505] },
      "properties": { "id": 265, "name": "Pontoon Dock", "line": "DLR" },
      "id": 265
    },
    {
      "type": "Feature",
      "geometry": { "type": "Point", "coordinates": [-0.133749, 51.489194] },
      "properties": { "id": 266, "name": "Pimlico", "line": "Victoria" },
      "id": 266
    },
    {
      "type": "Feature",
      "geometry": { "type": "Point", "coordinates": [0.060937, 51.514314] },
      "properties": { "id": 267, "name": "Beckton", "line": "DLR" },
      "id": 267
    },
    {
      "type": "Feature",
      "geometry": { "type": "Point", "coordinates": [-0.039713, 51.512499] },
      "properties": { "id": 268, "name": "Limehouse", "line": "DLR" },
      "id": 268
    },
    {
      "type": "Feature",
      "geometry": { "type": "Point", "coordinates": [-0.07524, 51.52338] },
      "properties": {
        "id": 269,
        "name": "Shoreditch High Street",
        "line": "Overground"
      },
      "id": 269
    },
    {
      "type": "Feature",
      "geometry": { "type": "Point", "coordinates": [-0.22241, 51.549309] },
      "properties": { "id": 270, "name": "Willesden Green", "line": "Jubilee" },
      "id": 270
    },
    {
      "type": "Feature",
      "geometry": { "type": "Point", "coordinates": [-0.174759, 51.543315] },
      "properties": { "id": 271, "name": "Swiss Cottage", "line": "Jubilee" },
      "id": 271
    },
    {
      "type": "Feature",
      "geometry": { "type": "Point", "coordinates": [0.017805, 51.531218] },
      "properties": { "id": 272, "name": "Plaistow", "line": "District" },
      "id": 272
    },
    {
      "type": "Feature",
      "geometry": { "type": "Point", "coordinates": [0.017805, 51.531218] },
      "properties": {
        "id": 272,
        "name": "Plaistow",
        "line": "HammersmithAndCity"
      },
      "id": 272
    },
    {
      "type": "Feature",
      "geometry": { "type": "Point", "coordinates": [-0.047217, 51.672626] },
      "properties": {
        "id": 273,
        "name": "Turkey Street",
        "line": "Overground"
      },
      "id": 273
    },
    {
      "type": "Feature",
      "geometry": { "type": "Point", "coordinates": [-0.0721, 51.58038] },
      "properties": {
        "id": 274,
        "name": "South Tottenham",
        "line": "Overground"
      },
      "id": 274
    },
    {
      "type": "Feature",
      "geometry": { "type": "Point", "coordinates": [-0.185421, 51.617811] },
      "properties": { "id": 275, "name": "Woodside Park", "line": "Northern" },
      "id": 275
    },
    {
      "type": "Feature",
      "geometry": { "type": "Point", "coordinates": [-0.020739, 51.527497] },
      "properties": { "id": 276, "name": "Bow Church", "line": "DLR" },
      "id": 276
    },
    {
      "type": "Feature",
      "geometry": { "type": "Point", "coordinates": [-0.013119, 51.511086] },
      "properties": { "id": 277, "name": "All Saints", "line": "DLR" },
      "id": 277
    },
    {
      "type": "Feature",
      "geometry": { "type": "Point", "coordinates": [-0.11714, 51.57131] },
      "properties": { "id": 278, "name": "Crouch Hill", "line": "Overground" },
      "id": 278
    },
    {
      "type": "Feature",
      "geometry": { "type": "Point", "coordinates": [-0.217779, 51.513544] },
      "properties": { "id": 279, "name": "Latimer Road", "line": "Circle" },
      "id": 279
    },
    {
      "type": "Feature",
      "geometry": { "type": "Point", "coordinates": [-0.217779, 51.513544] },
      "properties": {
        "id": 279,
        "name": "Latimer Road",
        "line": "HammersmithAndCity"
      },
      "id": 279
    },
    {
      "type": "Feature",
      "geometry": { "type": "Point", "coordinates": [-0.204633, 51.54688] },
      "properties": { "id": 280, "name": "Kilburn", "line": "Jubilee" },
      "id": 280
    },
    {
      "type": "Feature",
      "geometry": { "type": "Point", "coordinates": [-0.105065, 51.520445] },
      "properties": { "id": 281, "name": "Farringdon", "line": "Circle" },
      "id": 281
    },
    {
      "type": "Feature",
      "geometry": { "type": "Point", "coordinates": [-0.105065, 51.520445] },
      "properties": {
        "id": 281,
        "name": "Farringdon",
        "line": "ElizabethLine"
      },
      "id": 281
    },
    {
      "type": "Feature",
      "geometry": { "type": "Point", "coordinates": [-0.105065, 51.520445] },
      "properties": {
        "id": 281,
        "name": "Farringdon",
        "line": "HammersmithAndCity"
      },
      "id": 281
    },
    {
      "type": "Feature",
      "geometry": { "type": "Point", "coordinates": [-0.105065, 51.520445] },
      "properties": { "id": 281, "name": "Farringdon", "line": "Metropolitan" },
      "id": 281
    },
    {
      "type": "Feature",
      "geometry": { "type": "Point", "coordinates": [-0.11672, 51.54305] },
      "properties": {
        "id": 282,
        "name": "Caledonian Road & Barnsbury",
        "line": "Overground"
      },
      "id": 282
    },
    {
      "type": "Feature",
      "geometry": { "type": "Point", "coordinates": [-0.05424, 51.42725] },
      "properties": { "id": 283, "name": "Sydenham", "line": "Overground" },
      "id": 283
    },
    {
      "type": "Feature",
      "geometry": { "type": "Point", "coordinates": [-0.193889, 51.491644] },
      "properties": { "id": 284, "name": "Earl's Court", "line": "District" },
      "id": 284
    },
    {
      "type": "Feature",
      "geometry": { "type": "Point", "coordinates": [-0.193889, 51.491644] },
      "properties": { "id": 284, "name": "Earl's Court", "line": "Piccadilly" },
      "id": 284
    },
    {
      "type": "Feature",
      "geometry": { "type": "Point", "coordinates": [-0.187434, 51.51038] },
      "properties": { "id": 285, "name": "Queensway", "line": "Central" },
      "id": 285
    },
    {
      "type": "Feature",
      "geometry": { "type": "Point", "coordinates": [-0.38092, 51.592858] },
      "properties": { "id": 286, "name": "Pinner", "line": "Metropolitan" },
      "id": 286
    },
    {
      "type": "Feature",
      "geometry": { "type": "Point", "coordinates": [0.028746, 51.575521] },
      "properties": { "id": 287, "name": "Wanstead", "line": "Central" },
      "id": 287
    },
    {
      "type": "Feature",
      "geometry": { "type": "Point", "coordinates": [-0.057025, 51.561642] },
      "properties": { "id": 288, "name": "Clapton", "line": "Overground" },
      "id": 288
    },
    {
      "type": "Feature",
      "geometry": { "type": "Point", "coordinates": [-0.131842, 51.647584] },
      "properties": { "id": 289, "name": "Oakwood", "line": "Piccadilly" },
      "id": 289
    },
    {
      "type": "Feature",
      "geometry": { "type": "Point", "coordinates": [-0.156486, 51.492288] },
      "properties": { "id": 290, "name": "Sloane Square", "line": "Circle" },
      "id": 290
    },
    {
      "type": "Feature",
      "geometry": { "type": "Point", "coordinates": [-0.156486, 51.492288] },
      "properties": { "id": 290, "name": "Sloane Square", "line": "District" },
      "id": 290
    },
    {
      "type": "Feature",
      "geometry": { "type": "Point", "coordinates": [-0.075614, 51.514272] },
      "properties": { "id": 291, "name": "Aldgate", "line": "Circle" },
      "id": 291
    },
    {
      "type": "Feature",
      "geometry": { "type": "Point", "coordinates": [-0.075614, 51.514272] },
      "properties": { "id": 291, "name": "Aldgate", "line": "Metropolitan" },
      "id": 291
    },
    {
      "type": "Feature",
      "geometry": { "type": "Point", "coordinates": [-0.299487, 51.540695] },
      "properties": { "id": 292, "name": "Alperton", "line": "Piccadilly" },
      "id": 292
    },
    {
      "type": "Feature",
      "geometry": { "type": "Point", "coordinates": [-0.284228, 51.526901] },
      "properties": { "id": 293, "name": "Park Royal", "line": "Piccadilly" },
      "id": 293
    },
    {
      "type": "Feature",
      "geometry": { "type": "Point", "coordinates": [-0.293008, 51.530006] },
      "properties": { "id": 294, "name": "Hanger Lane", "line": "Central" },
      "id": 294
    },
    {
      "type": "Feature",
      "geometry": { "type": "Point", "coordinates": [0.043893, 51.617211] },
      "properties": { "id": 295, "name": "Roding Valley", "line": "Central" },
      "id": 295
    },
    {
      "type": "Feature",
      "geometry": { "type": "Point", "coordinates": [-0.280993, 51.517861] },
      "properties": { "id": 296, "name": "West Acton", "line": "Central" },
      "id": 296
    },
    {
      "type": "Feature",
      "geometry": { "type": "Point", "coordinates": [-0.074531, 51.510567] },
      "properties": { "id": 297, "name": "Tower Gateway", "line": "DLR" },
      "id": 297
    },
    {
      "type": "Feature",
      "geometry": { "type": "Point", "coordinates": [0.046342, 51.552475] },
      "properties": {
        "id": 298,
        "name": "Manor Park",
        "line": "ElizabethLine"
      },
      "id": 298
    },
    {
      "type": "Feature",
      "geometry": { "type": "Point", "coordinates": [-0.302614, 51.618912] },
      "properties": { "id": 299, "name": "Stanmore", "line": "Jubilee" },
      "id": 299
    },
    {
      "type": "Feature",
      "geometry": { "type": "Point", "coordinates": [-0.133808, 51.528185] },
      "properties": { "id": 300, "name": "Euston", "line": "Northern" },
      "id": 300
    },
    {
      "type": "Feature",
      "geometry": { "type": "Point", "coordinates": [-0.133808, 51.528185] },
      "properties": { "id": 300, "name": "Euston", "line": "Overground" },
      "id": 300
    },
    {
      "type": "Feature",
      "geometry": { "type": "Point", "coordinates": [-0.133808, 51.528185] },
      "properties": { "id": 300, "name": "Euston", "line": "Victoria" },
      "id": 300
    },
    {
      "type": "Feature",
      "geometry": { "type": "Point", "coordinates": [-0.211003, 51.458805] },
      "properties": { "id": 301, "name": "East Putney", "line": "District" },
      "id": 301
    },
    {
      "type": "Feature",
      "geometry": { "type": "Point", "coordinates": [-0.179261, 51.630208] },
      "properties": {
        "id": 302,
        "name": "Totteridge & Whetstone",
        "line": "Northern"
      },
      "id": 302
    },
    {
      "type": "Feature",
      "geometry": { "type": "Point", "coordinates": [-0.338583, 51.511833] },
      "properties": { "id": 303, "name": "Hanwell", "line": "ElizabethLine" },
      "id": 303
    },
    {
      "type": "Feature",
      "geometry": { "type": "Point", "coordinates": [-0.159693, 51.435641] },
      "properties": { "id": 304, "name": "Tooting Bec", "line": "Northern" },
      "id": 304
    },
    {
      "type": "Feature",
      "geometry": { "type": "Point", "coordinates": [-0.12951, 51.56364] },
      "properties": {
        "id": 305,
        "name": "Upper Holloway",
        "line": "Overground"
      },
      "id": 305
    },
    {
      "type": "Feature",
      "geometry": { "type": "Point", "coordinates": [-0.055431, 51.527195] },
      "properties": { "id": 306, "name": "Bethnal Green", "line": "Central" },
      "id": 306
    },
    {
      "type": "Feature",
      "geometry": { "type": "Point", "coordinates": [-0.267747, 51.494301] },
      "properties": { "id": 307, "name": "Chiswick Park", "line": "District" },
      "id": 307
    },
    {
      "type": "Feature",
      "geometry": { "type": "Point", "coordinates": [-0.002405, 51.586579] },
      "properties": { "id": 308, "name": "Wood Street", "line": "Overground" },
      "id": 308
    },
    {
      "type": "Feature",
      "geometry": { "type": "Point", "coordinates": [-0.052437, 51.648703] },
      "properties": { "id": 309, "name": "Southbury", "line": "Overground" },
      "id": 309
    },
    {
      "type": "Feature",
      "geometry": { "type": "Point", "coordinates": [-0.200884, 51.520921] },
      "properties": { "id": 310, "name": "Westbourne Park", "line": "Circle" },
      "id": 310
    },
    {
      "type": "Feature",
      "geometry": { "type": "Point", "coordinates": [-0.200884, 51.520921] },
      "properties": {
        "id": 310,
        "name": "Westbourne Park",
        "line": "HammersmithAndCity"
      },
      "id": 310
    },
    {
      "type": "Feature",
      "geometry": { "type": "Point", "coordinates": [-0.122909, 51.472167] },
      "properties": { "id": 311, "name": "Stockwell", "line": "Northern" },
      "id": 311
    },
    {
      "type": "Feature",
      "geometry": { "type": "Point", "coordinates": [-0.122909, 51.472167] },
      "properties": { "id": 311, "name": "Stockwell", "line": "Victoria" },
      "id": 311
    },
    {
      "type": "Feature",
      "geometry": { "type": "Point", "coordinates": [-0.257889, 51.53614] },
      "properties": { "id": 312, "name": "Harlesden", "line": "Bakerloo" },
      "id": 312
    },
    {
      "type": "Feature",
      "geometry": { "type": "Point", "coordinates": [-0.257889, 51.53614] },
      "properties": { "id": 312, "name": "Harlesden", "line": "Overground" },
      "id": 312
    },
    {
      "type": "Feature",
      "geometry": { "type": "Point", "coordinates": [-0.12236, 51.507242] },
      "properties": { "id": 313, "name": "Embankment", "line": "Bakerloo" },
      "id": 313
    },
    {
      "type": "Feature",
      "geometry": { "type": "Point", "coordinates": [-0.12236, 51.507242] },
      "properties": { "id": 313, "name": "Embankment", "line": "Circle" },
      "id": 313
    },
    {
      "type": "Feature",
      "geometry": { "type": "Point", "coordinates": [-0.12236, 51.507242] },
      "properties": { "id": 313, "name": "Embankment", "line": "District" },
      "id": 313
    },
    {
      "type": "Feature",
      "geometry": { "type": "Point", "coordinates": [-0.12236, 51.507242] },
      "properties": { "id": 313, "name": "Embankment", "line": "Northern" },
      "id": 313
    },
    {
      "type": "Feature",
      "geometry": { "type": "Point", "coordinates": [-0.012783, 51.464687] },
      "properties": { "id": 314, "name": "Lewisham", "line": "DLR" },
      "id": 314
    },
    {
      "type": "Feature",
      "geometry": { "type": "Point", "coordinates": [-0.13852, 51.47022] },
      "properties": {
        "id": 315,
        "name": "Wandsworth Road",
        "line": "Overground"
      },
      "id": 315
    },
    {
      "type": "Feature",
      "geometry": { "type": "Point", "coordinates": [-0.149615, 51.651688] },
      "properties": { "id": 316, "name": "Cockfosters", "line": "Piccadilly" },
      "id": 316
    },
    {
      "type": "Feature",
      "geometry": { "type": "Point", "coordinates": [-0.226305, 51.505561] },
      "properties": {
        "id": 317,
        "name": "Shepherd's Bush Market",
        "line": "Circle"
      },
      "id": 317
    },
    {
      "type": "Feature",
      "geometry": { "type": "Point", "coordinates": [-0.226305, 51.505561] },
      "properties": {
        "id": 317,
        "name": "Shepherd's Bush Market",
        "line": "HammersmithAndCity"
      },
      "id": 317
    },
    {
      "type": "Feature",
      "geometry": { "type": "Point", "coordinates": [0.071649, 51.508526] },
      "properties": { "id": 318, "name": "Gallions Reach", "line": "DLR" },
      "id": 318
    },
    {
      "type": "Feature",
      "geometry": { "type": "Point", "coordinates": [-0.17022, 51.46419] },
      "properties": {
        "id": 319,
        "name": "Clapham Junction",
        "line": "Overground"
      },
      "id": 319
    },
    {
      "type": "Feature",
      "geometry": { "type": "Point", "coordinates": [0.220113, 51.568641] },
      "properties": { "id": 320, "name": "Emerson Park", "line": "Overground" },
      "id": 320
    },
    {
      "type": "Feature",
      "geometry": { "type": "Point", "coordinates": [-0.057753, 51.541151] },
      "properties": {
        "id": 321,
        "name": "London Fields",
        "line": "Overground"
      },
      "id": 321
    },
    {
      "type": "Feature",
      "geometry": { "type": "Point", "coordinates": [0.219019, 51.554005] },
      "properties": { "id": 322, "name": "Hornchurch", "line": "District" },
      "id": 322
    },
    {
      "type": "Feature",
      "geometry": { "type": "Point", "coordinates": [-0.279251, 51.56326] },
      "properties": { "id": 323, "name": "Wembley Park", "line": "Jubilee" },
      "id": 323
    },
    {
      "type": "Feature",
      "geometry": { "type": "Point", "coordinates": [-0.279251, 51.56326] },
      "properties": {
        "id": 323,
        "name": "Wembley Park",
        "line": "Metropolitan"
      },
      "id": 323
    },
    {
      "type": "Feature",
      "geometry": { "type": "Point", "coordinates": [-0.152749, 51.50276] },
      "properties": {
        "id": 324,
        "name": "Hyde Park Corner",
        "line": "Piccadilly"
      },
      "id": 324
    },
    {
      "type": "Feature",
      "geometry": { "type": "Point", "coordinates": [-0.060572, 51.548536] },
      "properties": {
        "id": 325,
        "name": "Hackney Downs",
        "line": "Overground"
      },
      "id": 325
    },
    {
      "type": "Feature",
      "geometry": { "type": "Point", "coordinates": [0.074527, 51.617872] },
      "properties": { "id": 326, "name": "Chigwell", "line": "Central" },
      "id": 326
    },
    {
      "type": "Feature",
      "geometry": { "type": "Point", "coordinates": [-0.167666, 51.51992] },
      "properties": { "id": 327, "name": "Edgware Road", "line": "Circle" },
      "id": 327
    },
    {
      "type": "Feature",
      "geometry": { "type": "Point", "coordinates": [-0.167666, 51.51992] },
      "properties": { "id": 327, "name": "Edgware Road", "line": "District" },
      "id": 327
    },
    {
      "type": "Feature",
      "geometry": { "type": "Point", "coordinates": [-0.167666, 51.51992] },
      "properties": {
        "id": 327,
        "name": "Edgware Road",
        "line": "HammersmithAndCity"
      },
      "id": 327
    },
    {
      "type": "Feature",
      "geometry": { "type": "Point", "coordinates": [0.07178, 51.491695] },
      "properties": { "id": 328, "name": "Woolwich", "line": "ElizabethLine" },
      "id": 328
    },
    {
      "type": "Feature",
      "geometry": { "type": "Point", "coordinates": [-0.411039, 51.560589] },
      "properties": { "id": 329, "name": "Ruislip Gardens", "line": "Central" },
      "id": 329
    },
    {
      "type": "Feature",
      "geometry": { "type": "Point", "coordinates": [0.022353, 51.502951] },
      "properties": { "id": 330, "name": "West Silvertown", "line": "DLR" },
      "id": 330
    },
    {
      "type": "Feature",
      "geometry": { "type": "Point", "coordinates": [-0.112893, 51.482105] },
      "properties": { "id": 331, "name": "Oval", "line": "Northern" },
      "id": 331
    },
    {
      "type": "Feature",
      "geometry": { "type": "Point", "coordinates": [-0.175149, 51.515981] },
      "properties": { "id": 332, "name": "Paddington", "line": "Bakerloo" },
      "id": 332
    },
    {
      "type": "Feature",
      "geometry": { "type": "Point", "coordinates": [-0.175149, 51.515981] },
      "properties": { "id": 332, "name": "Paddington", "line": "Circle" },
      "id": 332
    },
    {
      "type": "Feature",
      "geometry": { "type": "Point", "coordinates": [-0.175149, 51.515981] },
      "properties": { "id": 332, "name": "Paddington", "line": "District" },
      "id": 332
    },
    {
      "type": "Feature",
      "geometry": { "type": "Point", "coordinates": [-0.123858, 51.530397] },
      "properties": {
        "id": 333,
        "name": "King's Cross St Pancras",
        "line": "Circle"
      },
      "id": 333
    },
    {
      "type": "Feature",
      "geometry": { "type": "Point", "coordinates": [-0.123858, 51.530397] },
      "properties": {
        "id": 333,
        "name": "King's Cross St Pancras",
        "line": "HammersmithAndCity"
      },
      "id": 333
    },
    {
      "type": "Feature",
      "geometry": { "type": "Point", "coordinates": [-0.123858, 51.530397] },
      "properties": {
        "id": 333,
        "name": "King's Cross St Pancras",
        "line": "Metropolitan"
      },
      "id": 333
    },
    {
      "type": "Feature",
      "geometry": { "type": "Point", "coordinates": [-0.123858, 51.530397] },
      "properties": {
        "id": 333,
        "name": "King's Cross St Pancras",
        "line": "Northern"
      },
      "id": 333
    },
    {
      "type": "Feature",
      "geometry": { "type": "Point", "coordinates": [-0.123858, 51.530397] },
      "properties": {
        "id": 333,
        "name": "King's Cross St Pancras",
        "line": "Piccadilly"
      },
      "id": 333
    },
    {
      "type": "Feature",
      "geometry": { "type": "Point", "coordinates": [-0.123858, 51.530397] },
      "properties": {
        "id": 333,
        "name": "King's Cross St Pancras",
        "line": "Victoria"
      },
      "id": 333
    },
    {
      "type": "Feature",
      "geometry": { "type": "Point", "coordinates": [-0.223966, 51.530498] },
      "properties": { "id": 334, "name": "Kensal Green", "line": "Bakerloo" },
      "id": 334
    },
    {
      "type": "Feature",
      "geometry": { "type": "Point", "coordinates": [-0.223966, 51.530498] },
      "properties": { "id": 334, "name": "Kensal Green", "line": "Overground" },
      "id": 334
    },
    {
      "type": "Feature",
      "geometry": { "type": "Point", "coordinates": [0.165875, 51.544117] },
      "properties": { "id": 335, "name": "Dagenham East", "line": "District" },
      "id": 335
    },
    {
      "type": "Feature",
      "geometry": { "type": "Point", "coordinates": [-0.275175, 51.491793] },
      "properties": { "id": 336, "name": "Gunnersbury", "line": "District" },
      "id": 336
    },
    {
      "type": "Feature",
      "geometry": { "type": "Point", "coordinates": [-0.275175, 51.491793] },
      "properties": { "id": 336, "name": "Gunnersbury", "line": "Overground" },
      "id": 336
    },
    {
      "type": "Feature",
      "geometry": { "type": "Point", "coordinates": [0.004, 51.532] },
      "properties": { "id": 337, "name": "Abbey Road", "line": "DLR" },
      "id": 337
    },
    {
      "type": "Feature",
      "geometry": { "type": "Point", "coordinates": [-0.191979, 51.41528] },
      "properties": {
        "id": 338,
        "name": "South Wimbledon",
        "line": "Northern"
      },
      "id": 338
    },
    {
      "type": "Feature",
      "geometry": { "type": "Point", "coordinates": [-0.152728, 51.443291] },
      "properties": { "id": 339, "name": "Balham", "line": "Northern" },
      "id": 339
    },
    {
      "type": "Feature",
      "geometry": { "type": "Point", "coordinates": [-0.0195, 51.50363] },
      "properties": { "id": 340, "name": "Canary Wharf", "line": "Jubilee" },
      "id": 340
    },
    {
      "type": "Feature",
      "geometry": { "type": "Point", "coordinates": [-0.130871, 51.51621] },
      "properties": {
        "id": 341,
        "name": "Tottenham Court Road",
        "line": "Central"
      },
      "id": 341
    },
    {
      "type": "Feature",
      "geometry": { "type": "Point", "coordinates": [-0.130871, 51.51621] },
      "properties": {
        "id": 341,
        "name": "Tottenham Court Road",
        "line": "ElizabethLine"
      },
      "id": 341
    },
    {
      "type": "Feature",
      "geometry": { "type": "Point", "coordinates": [-0.130871, 51.51621] },
      "properties": {
        "id": 341,
        "name": "Tottenham Court Road",
        "line": "Northern"
      },
      "id": 341
    },
    {
      "type": "Feature",
      "geometry": { "type": "Point", "coordinates": [-0.118312, 51.548421] },
      "properties": {
        "id": 342,
        "name": "Caledonian Road",
        "line": "Piccadilly"
      },
      "id": 342
    },
    {
      "type": "Feature",
      "geometry": { "type": "Point", "coordinates": [-0.081662, 51.517742] },
      "properties": {
        "id": 343,
        "name": "Liverpool Street",
        "line": "Central"
      },
      "id": 343
    },